web-scraper-order,description_raw,location_raw,price_raw,price,mileage_raw,mileage,fuel_type_raw,fuel_type_Diesel,bfs_name,bfs_number,lat,lon
1733470796-1,MERCEDES-BENZ Camper,"Mittelstrasse 38, 3613 Steffisburg",CHF 15'900.–,15900,265'000 km,265000,Diesel,1,Bern,['02'],46.767906188964844,7.615882396697998
1733470799-2,CARADO I 449 Édition 15 Fiat Capron 169L/1449,"Zone industrielle Les Portettes 2c, 1312 Eclépens",CHF 71'900.–,71900,14'000 km,14000,Diesel,1,Vaud,['22'],46.655277252197266,6.553426742553711
1733470801-3,DETHLEFFS Fiat Ducato,"Rte du St-Bernard 8, 1937 Orsières",CHF 37'800.–,37800,90'000 km,90000,Diesel,1,Valais,['23'],46.03584671020508,7.146042823791504
1733470805-4,FIAT Euro Master Wohnmobil,"Badenerstrasse 84, 8952 Schlieren",CHF 19'900.–,19900,187'236 km,187236,Diesel,1,Zürich,['01'],47.39728546142578,8.434126853942871
1733470807-5,VW T6.1 California 2.0 TDI Ocean Edition Liberty 4Motion,8852 Altendorf,CHF 84'500.–,84500,16'500 km,16500,Diesel,1,Schwyz,['05'],47.16980743408203,8.801252365112305
1733470809-6,"VW T6.1 Knaus Tourer Van 500 MW, MEGA Ausstattung, EUROPREISVORTEIL !!! 635kg Zuladung",8852 Altendorf,CHF 69'900.–,69900,11'000 km,11000,Diesel,1,Schwyz,['05'],47.16980743408203,8.801252365112305
1733470812-7,VW T6.1 California 2.0 TDI Ocean Liberty,"Güterstrasse 37, 9444 Diepoldsau",CHF 56'500.–,56500,45'000 km,45000,Diesel,1,St. Gallen,['17'],47.39250183105469,9.650969505310059
1733470815-8,HYMER BMC 580-I,"Büelhalde 4, 8317 Tagelswangen",CHF 115'800.–,115800,12'200 km,12200,Diesel,1,Zürich,['01'],47.42753982543945,8.673209190368652
1733470818-9,VW T6 California 2.0 TDI BULLI Beach Edition 4Motion,"Birmensdorferstrasse 18, 8902 Urdorf",CHF 51'900.–,51900,83'000 km,83000,Diesel,1,Zürich,['01'],47.39269256591797,8.41797161102295
1733470820-10,MERCEDES-BENZ Marco Polo 250 d 7G-Tronic,"Neumatt 10, 4626 Niederbuchsiten",CHF 49'900.–,49900,113'000 km,113000,Diesel,1,Solothurn,['11'],47.2994270324707,7.768882751464844
1733470825-12,FORD Nugget,"Hardstrasse 78, 4657 Dulliken",CHF 49'900.–,49900,23'500 km,23500,Diesel,1,Solothurn,['11'],47.349239349365234,7.9577460289001465
1733470830-13,FIAT ***  Pilote Aventura T670 - Fiat Ducato 2.3 131PS ***,"Kriesbachstrasse 7, 8304 Wallisellen",CHF 28'900.–,28900,140'000 km,140000,Diesel,1,Zürich,['01'],47.409698486328125,8.61287784576416
1733470834-15,FIAT Trigano granduca 64,2556 Schwadernau,CHF 15'999.–,15999,105'000 km,105000,Diesel,1,Bern,['02'],47.11965560913086,7.325146675109863
1733470839-17,VW T4,"Schachenstrasse 8, 5014 Gretzenbach",CHF 6'800.–,6800,241'912 km,241912,Benzin,0,Solothurn,['11'],47.359962463378906,7.9829511642456055
1733470842-18,FIAT *** FAMILIEN WOHNMOBIL - MCLOUIS ALKOVEN - KAJÜTENBETTEN - KLIMA - TEMPOMAT  ***,"Kriesbachstrasse 7, 8304 Wallisellen",CHF 28'700.–,28700,86'000 km,86000,Diesel,1,Zürich,['01'],47.409698486328125,8.61287784576416
1733470849-21,FIAT Ducato,"Schachenstrasse 8, 5014 Gretzenbach",CHF 11'800.–,11800,215'456 km,215456,Diesel,1,Bern,['02'],47.15525436401367,7.330783367156982
1733470851-22,VW Typ 2 / Reimo,"Industriestrasse 7, 2553 Safnern",CHF 14'900.–,14900,152'000 km,152000,Diesel,1,Zürich,['01'],47.382022857666016,8.666350364685059
1733470858-25,VW T6.1 California 2.0 TDI Ocean Liberty,"St. Gallerstrasse 99, 9032 Engelburg",CHF 58'890.–,58890,16'800 km,16800,Diesel,1,Vaud,['22'],46.73106002807617,6.534222602844238
1733470860-26,MERCEDES-BENZ Marco Polo Horizon 250 d 4Matic 7G-Tronic,"Brühlmatten 7 , ( Industriezone Brühl ), 4800 Zofingen",CHF 55'900.–,55900,79'249 km,79249,Diesel,1,Fribourg,['10'],46.82259750366211,7.301876544952393
1733470863-27,BÜRSTNER,1350 Orbe,CHF 39'990.–,39990,69'980 km,69980,Diesel,1,Bern,['02'],47.18526840209961,7.377481460571289
1733470867-29,PEUGEOT BOXER,"Solothurnstrasse 75, 2543 Lengnau",CHF 6'000.–,6000,213'900 km,213900,Diesel,1,Zürich,['01'],47.409698486328125,8.61287784576416
1733470870-30,PEUGEOT BOXER,"Hauptstrasse 92 a, 9430 St.Margrethen",CHF 5'999.–,5999,295'100 km,295100,Diesel,1,Basel-Landschaft,['13'],47.52214813232422,7.672452449798584
1733470872-31,WESTFALIA *** .BIG NUGGET - Ford Transit 2.2 TDCi - DUSCHE - WC -  ***,"Kriesbachstrasse 7, 8304 Wallisellen",CHF 14'700.–,14700,290'000 km,290000,Diesel,1,Aargau,['19'],47.525123596191406,8.323613166809082
1733470880-33,MERCEDES-BENZ Marco Polo 250 d  4M A,"Güterstrasse 99, 4133 Pratteln",CHF 78'900.–,78900,15'000 km,15000,Diesel,1,Bern,['02'],47.11965560913086,7.325146675109863
1733470882-34,VW Grand California 600 2.0 BI-TDI,"Landstrasse 62, 5426 Lengnau",CHF 69'000.–,69000,12'000 km,12000,Diesel,1,Zürich,['01'],47.45178985595703,8.444846153259277
1733470887-36,VW Original VANAGON CAMPER Automat Hubdach küche,2556 Schwadernau,CHF 7'700.–,7700,125'000 km,125000,Benzin,0,Aargau,['19'],47.5765380859375,8.314477920532227
1733470889-37,MERCEDES-BENZ 316 CDI,"Riedackerweg 14, 8107 Buchs",CHF 8'600.–,8600,223'000 km,223000,Diesel,1,Bern,['02'],46.774803161621094,7.615665435791016
1733470892-38,PEUGEOT Leichter Mototwagen,"Kantonsstrasse 331, 3900 Gamsen",CHF 3'500.–,3500,175'500 km,175500,Diesel,1,Zürich,['01'],47.47664260864258,8.702418327331543
1733470895-39,CITROEN Wohnmobil,"Zürcherstrasse 42, 5330 Bad Zurzach",CHF 39'300.–,39300,110'000 km,110000,Diesel,1,Vaud,['22'],46.597469329833984,6.542710781097412
1733470899-40,NIESMANN + BISCHOFF iSmove 6.9 E,"Bernstrasse 115, 3613 Steffisburg",CHF 109'000.–,109000,25'300 km,25300,Diesel,1,Thurgau,['20'],47.54833221435547,8.849271774291992
1733470901-41,FIAT Adria Sun Living A70DK - ab MFK & Gasprüfung,"Steigstrasse 26, 8406 Winterthur",CHF 49'900.–,49900,20'552 km,20552,Diesel,1,Basel-Landschaft,['13'],47.523582458496094,7.711702823638916
1733470904-42,IVECO 35.10 turbo daily,"Route de Sullens 9, 1303 Penthaz VD",CHF 3'900.–,3900,192'000 km,192000,Diesel,1,Zürich,['01'],47.272743225097656,8.43922233581543
1733470908-44,ADRIA Twin Sports 640 SGX (A256),"Wannenweg 1, 4133 Pratteln",CHF 88'900.–,88900,10'000 km,10000,Diesel,1,Zürich,['01'],47.40155029296875,8.43859577178955
1733470918-48,SUN LIVING S65L,"ROUTE DU GRANDVAL 10, 2744 BELPRAHON/MOUTIER",CHF 53'900.–,53900,19'500 km,19500,Diesel,1,Zürich,['01'],47.441410064697266,8.616898536682129
1733470922-50,MAURER Starliner 20,"Lerchenweg 14. Oder Läufelfingen ramsachstrasse 26, 4538 Oberbipp",CHF 59'900.–,59900,38'000 km,38000,Diesel,1,Basel-Landschaft,['13'],47.523582458496094,7.711702823638916
1733470933-53,FIAT 1.5Q 2.3TDI,"Vorbuchenstrasse 13, 8303 Bassersdorf",CHF 5'500.–,5500,119'000 km,119000,Diesel,1,Luzern,['03'],47.08992385864258,8.253633499145508
1733470938-55,SUN LIVING S-SERIES S70 DF (A276),"Wannenweg 1, 4133 Pratteln",CHF 71'900.–,71900,14'500 km,14500,Diesel,1,Thurgau,['20'],47.54833221435547,8.849271774291992
1733470940-56,FIAT 18 2.8TD,"Murtenstrasse 59, 1784 Courtepin (Kanton Freiburg)",CHF 11'300.–,11300,96'000 km,96000,Diesel,1,Zürich,['01'],47.255882263183594,8.845612525939941
1733470942-57,MERCEDES-BENZ Hymer,"Bassersdorferstrasse 117, 8302 Kloten",CHF 19'870.–,19870,51'000 km,51000,Diesel,1,Zürich,['01'],47.50075149536133,8.767881393432617
1733470945-58,VW T5 2.5 TDI PD 4MOTION Camper Wohnmobil,"Buzibachstrasse 47, 6023 Rothenburg",CHF 21'800.–,21800,184'000 km,184000,Diesel,1,St. Gallen,['17'],47.25289535522461,9.001060485839844
1733470949-60,GLOBECAR,"Lerchenweg 14. Oder Läufelfingen ramsachstrasse 26, 4538 Oberbipp",CHF 42'500.–,42500,16'000 km,16000,Diesel,1,Vaud,['22'],46.60051727294922,6.5255560874938965
1733470952-61,ROLLER TEAM Kronos 284 TL20,"Hauptstrasse 70, 8546 Islikon",CHF 59'890.–,59890,34'700 km,34700,Diesel,1,Luzern,['03'],47.23344039916992,7.90991735458374
1733470956-63,VW California Oce. Lib 4M A,"Ohrbühlstrasse 37, 8409 Winterthur",CHF 58'900.–,58900,42'300 km,42300,Diesel,1,Vaud,['22'],46.73106002807617,6.534222602844238
1733470958-64,VW Typ 2 Reimo Hochdach,"Breitenstrasse 1, 8725 Gebertingen",CHF 19'900.–,19900,169'580 km,169580,Benzin,0,St. Gallen,['17'],47.31846237182617,9.172804832458496
1733470961-65,VW T6.1 California 2.0 TDI Ocean Liberty 4Motion,"St. Gallerstrasse 99, 9032 Engelburg",CHF 71'900.–,71900,21'000 km,21000,Diesel,1,Bern,['02'],47.09516906738281,7.561470985412598
1733470963-66,FIAT Pilote G740 C,"Rte de Gollion 15, 1305 Penthalaz",CHF 72'900.–,72900,36'000 km,36000,Diesel,1,Thurgau,['20'],47.54833221435547,8.849271774291992
1733470965-67,LAIKA,"Tannbachstrasse 2, 6264 Pfaffnau",CHF 23'900.–,23900,163'290 km,163290,Diesel,1,Nidwalden,['07'],46.965248107910156,8.383917808532715
1733470968-68,VW T4 california,"schwarzenburgstrasse 844, 3145 Niederscherli-Bern",CHF 17'000.–,17000,300'000 km,300000,Diesel,1,Graubünden,['18'],46.955711364746094,9.570183753967285
1733470970-69,CHALLENGER 620,1350 Orbe,CHF 22'500.–,22500,139'890 km,139890,Diesel,1,Zürich,['01'],47.382022857666016,8.666350364685059
1733470973-70,DETHLEFFS Fiat 3L Iveco,"Dorf 10, 9127 St. Peterzell",CHF 59'800.–,59800,57'000 km,57000,Diesel,1,Basel-Landschaft,['13'],47.523582458496094,7.711702823638916
1733470977-72,ROLLER TEAM Zefiro 285 TL15,"Hauptstrasse 70, 8546 Islikon",CHF 64'890.–,64890,31'300 km,31300,Diesel,1,Fribourg,['10'],46.71854782104492,6.959683418273926
1733470982-73,MERCEDES-BENZ 312D Kaiser,"Rieden 10, 6370 Stans",CHF 21'800.–,21800,154'000 km,154000,Diesel,1,Fribourg,['10'],46.62849044799805,7.060698986053467
1733470988-75,FIAT i675,"Industriestrasse 6, 8604 Volketswil",CHF 30'000.–,30000,111'000 km,111000,Diesel,1,Fribourg,['10'],46.8519401550293,6.990228176116943
1733470991-76,SUN LIVING V-SERIES V60 SP TenTop (A245),"Wannenweg 1, 4133 Pratteln",CHF 65'900.–,65900,22'000 km,22000,Diesel,1,Fribourg,['10'],46.82259750366211,7.301876544952393
1733470993-77,FIAT 290 / 14,"Murtenstrasse 59, 1784 Courtepin (Kanton Freiburg)",CHF 4'800.–,4800,151'000 km,151000,Diesel,1,Valais,['23'],46.222537994384766,7.293209552764893
1733470995-78,VW T6.1 California 2.0 TDI Ocean Liberty 4Motion,"Route de la Gare 62, 1690 Villaz-St-Pierre",CHF 69'000.–,69000,98'000 km,98000,Diesel,1,Solothurn,['11'],47.18832778930664,7.554986000061035
1733470998-79,VW Cali. BiTDI Oce. Lib 4M A,"Rue de Vuippens 57, 1630 Bulle",CHF 79'900.–,79900,12'300 km,12300,Diesel,1,St. Gallen,['17'],47.31846237182617,9.172804832458496
1733471000-80,MERCEDES-BENZ Sprinter 212 D,"schwarzenburgstrasse 844, 3145 Niederscherli-Bern",CHF 7'999.–,7999,40'000 km,40000,Diesel,1,Thurgau,['20'],47.54833221435547,8.849271774291992
1733471003-81,FIAT KNAUS célébrât 650meg,"Rue Centrale 7, 1563 Dompierre FR",CHF 41'900.–,41900,182'000 km,182000,Diesel,1,Graubünden,['18'],46.955711364746094,9.570183753967285
1733471005-82,VW Cali. TDI Bea.Ed. Sp. A,"Spisi 9, 1714 Heitenried",CHF 67'000.–,67000,14'300 km,14300,Diesel,1,Zürich,['01'],47.31379699707031,8.796833038330078
1733471007-83,FIAT challenger trigano,"Rue Du Levant 21, 1963 Vétroz",CHF 17'990.–,17990,224'000 km,224000,Diesel,1,Zürich,['01'],47.31379699707031,8.796833038330078
1733471010-84,FIAT Ducato 15Q 2.8 JTD,"gewerbestrasse 16, 4562 Biberist",CHF 19'500.–,19500,115'000 km,115000,Diesel,1,Bern,['02'],47.070011138916016,7.203824520111084
1733471017-86,TOYOTA 4x4 Untersetzung,"Dorf 10, 9127 St. Peterzell",CHF 34'800.–,34800,16'700 km,16700,Benzin,0,Bern,['02'],47.070011138916016,7.203824520111084
1733471019-87,ROLLER TEAM Kronos 265 TL7,"Hauptstrasse 70, 8546 Islikon",CHF 62'870.–,62870,38'850 km,38850,Diesel,1,Bern,['02'],47.070011138916016,7.203824520111084
1733471023-88,SUNLIGHT Adventure T Ford 680,"Obermühleweg 5, 7302 Landquart",CHF 68'000.–,68000,20'000 km,20000,Diesel,1,Schwyz,['05'],47.03178024291992,8.624926567077637
1733471032-92,VW T4 California,"Burrirain 56a, 2575 Täuffelen",CHF 21'900.–,21900,136'000 km,136000,Diesel,1,Thurgau,['20'],47.56602096557617,9.091235160827637
1733471037-93,VW transporter,"Rue Centrale 7, 1563 Dompierre FR",CHF 13'900.–,13900,188'000 km,188000,Diesel,1,Zürich,['01'],47.60587692260742,8.68687629699707
1733471039-94,VW California 4x4 Klima,"Burrirain 56a, 2575 Täuffelen",CHF 25'900.–,25900,179'000 km,179000,Benzin,0,Basel-Stadt,['12'],47.570777893066406,7.576108455657959
1733471041-95,VW California,"Burrirain 56a, 2575 Täuffelen",CHF 13'500.–,13500,238'500 km,238500,Diesel,1,Zürich,['01'],47.40155029296875,8.43859577178955
1733471044-96,MERCEDES-BENZ Marco Polo Horizon 250 d 4Matic 7G-Tronic,"Riedmattli 5, 6423 Seewen",CHF 44'000.–,44000,167'500 km,167500,Diesel,1,Bern,['02'],47.23579025268555,7.236842155456543
1733471046-97,VW T5 California 2.0 TDI Beach Last Edition,"via ala Campagna, 6593 Cadenazzo",CHF 39'900.–,39900,58'500 km,58500,Diesel,1,Zürich,['01'],47.31379699707031,8.796833038330078
1733471049-98,CARADO T447 Pro Automat,"Linth-Escherstr. 5a/ 2. OCC Platz Hauptstrasse 61, 8865 Bilten",CHF 78'500.–,78500,12'000 km,12000,Diesel,1,Schwyz,['05'],47.0999870300293,8.67253589630127
1733471051-99,FIAT Camping-car,"Rte d'Autigny 4, 1744 Chénens",CHF 8'000.–,8000,95'000 km,95000,Diesel,1,Luzern,['03'],47.10284423828125,8.376439094543457
1733471053-100,"MERCEDES-BENZ 312D ***mit el. Hubbett(Längsbett), Sondermodel***","Brunnenwiesenstrasse 8, 8570 Weinfelden",CHF 29'900.–,29900,40'000 km,40000,Diesel,1,Thurgau,['20'],47.54833221435547,8.849271774291992
1733471056-101,DETHLEFFS Just Camp T 6812 EB auf Basis Citroen Jumper,"Gewerbestrasse 1, 8451 Kleinandelfingen",CHF 82'600.–,82600,10'000 km,10000,Diesel,1,St. Gallen,['17'],47.47590255737305,9.550376892089844
1733471058-102,VW Westfalia,"Voltastrasse 89, 4056 Basel",CHF 14'900.–,14900,119'499 km,119499,Benzin,0,Thurgau,['20'],47.56113815307617,9.13205337524414
1733471063-104,MERCEDES-BENZ Marco Polo 300 d 4M A,"Goldschlägistrasse 19, 8952 Schlieren",CHF 88'000.–,88000,20'000 km,20000,Diesel,1,St. Gallen,['17'],47.31846237182617,9.172804832458496
1733471066-105,FIAT Pössl,"Clos là Outre 28, 2732 Loveresse",CHF 49'900.–,49900,16'000 km,16000,Diesel,1,St. Gallen,['17'],47.31846237182617,9.172804832458496
1733471068-106,VW T6.1 California Ocean,"Grubenstrasse 24, 8620 Wetzikon",CHF 53'900.–,53900,86'223 km,86223,Diesel,1,Zürich,['01'],47.26015853881836,8.858055114746094
1733471071-107,ROLLER TEAM Liv DUO 2024,"Landstrasse 10, 6418 Rothenthurm",CHF 64'900.–,64900,25'800 km,25800,Diesel,1,Ticino,['21'],46.2071647644043,9.038201332092285
1733471073-108,DETHLEFFS Globebus 11,"Oberfeld 2, 6037 Root",CHF 39'800.–,39800,43'100 km,43100,Diesel,1,Zürich,['01'],47.39076232910156,8.668862342834473
1733471076-109,ROLLER TEAM 284 M2,"Hauptstrasse 70, 8546 Islikon",CHF 52'890.–,52890,37'700 km,37700,Diesel,1,St. Gallen,['17'],47.24024963378906,9.50187873840332
1733471078-110,OPEL Vivaro B 16 CDTi Camper Van,"Buechbergstrasse 10, 9422 Staad SG",CHF 27'500.–,27500,184'822 km,184822,Diesel,1,Zürich,['01'],47.36935806274414,8.42248249053955
1733471081-111,FIAT Bürstner T600 Harmony,"Oberfeldstrasse 13, 8570 Weinfelden",CHF 21'900.–,21900,128'000 km,128000,Diesel,1,Vaud,['22'],46.25091552734375,7.00229549407959
1733471083-112,MERCEDES-BENZ 310 4x4 Untersetzung,"Dorf 10, 9127 St. Peterzell",CHF 35'600.–,35600,38'000 km,38000,Benzin,0,Luzern,['03'],47.03029251098633,8.294075012207031
1733471088-113,LAND ROVER DEFENDER 110 TD5 Wohnkabine,"Dorf 10, 9127 St. Peterzell",CHF 57'900.–,57900,134'000 km,134000,Diesel,1,St. Gallen,['17'],47.31846237182617,9.172804832458496
1733471096-116,MIRAGE Fiat Ducato,"Via San Gottardo 106, 6500 Bellinzona",CHF 27'900.–,27900,129'900 km,129900,Diesel,1,Zürich,['01'],47.45183181762695,8.701164245605469
1733471099-117,VW T2,"Juchstrasse 25, 8604 Volketswil",CHF 14'600.–,14600,55'043 km,55043,Benzin,0,Zürich,['01'],47.382022857666016,8.666350364685059
1733471103-118,VW Hymer Cape Town  Lady Camper,"Sennwalder str 34, 9465 Salez",CHF 35'000.–,35000,207'000 km,207000,Diesel,1,Schaffhausen,['14'],47.741600036621094,8.709936141967773
1733471105-119,VW T6.1 California 2.0 Bi-TDI Ocean Liberty 4Motion,"Bergermoosstrasse 10, 8902 Urdorf",CHF 75'500.–,75500,15'500 km,15500,Diesel,1,Solothurn,['11'],47.15408706665039,7.592122554779053
1733471107-120,FORD Challenger 264,"Rte du Grand-St-Bernard 17, 1880 Bex",CHF 54'900.–,54900,46'500 km,46500,Diesel,1,Thurgau,['20'],47.594444274902344,8.948468208312988
1733471113-122,VW T4,"Werkstrasse 4, 6010 Kriens",CHF 12'900.–,12900,224'569 km,224569,Diesel,1,Thurgau,['20'],47.54833221435547,8.849271774291992
1733471115-123,IVECO 4x4 Offroader,"Dorf 10, 9127 St. Peterzell",CHF 34'800.–,34800,11'800 km,11800,Diesel,1,Zürich,['01'],47.31379699707031,8.796833038330078
1733471117-124,MERCEDES-BENZ 311CDI,"Schwarzenburgstrasse 844, 3145 Bern",CHF 10'500.–,10500,203'000 km,203000,Diesel,1,Aargau,['19'],47.414920806884766,8.382509231567383
1733471120-125,MERCEDES-BENZ 316CDI Ahorn Camp M 730,"Hauptstrasse 87-89b & Voreimatt 99, 4492 Tecknau",CHF 35'990.–,35990,123'000 km,123000,Diesel,1,Basel-Landschaft,['13'],47.523582458496094,7.711702823638916
1733471123-126,HYMER Hymermobil,8310 Kemptthal,CHF 16'990.–,16990,73'000 km,73000,Diesel,1,Zürich,['01'],47.60587692260742,8.68687629699707
1733471125-127,HYMER FIAT WLT 3.0M JET/35,"Industriestrasse 6, 8604 Volketswil",CHF 35'990.–,35990,33'000 km,33000,Diesel,1,Bern,['02'],47.21744155883789,7.783696174621582
1733471130-129,SUNLIGHT V66 mit Einzelbett!,"Hauptstrasse 216, 4565 Recherswil",CHF 59'777.–,59777,42'190 km,42190,Diesel,1,St. Gallen,['17'],47.467018127441406,9.58243179321289
1733471134-130,VW T5 California 2.0 TDI Beach Travel,"Hauptstrasse 3, 8505 Pfyn/TG",CHF 28'900.–,28900,129'300 km,129300,Diesel,1,St. Gallen,['17'],47.31846237182617,9.172804832458496
1733471138-131,DETHLEFFS Just T7052 EB,"Staatsstrasse 49, 9437 Marbach",CHF 59'000.–,59000,19'900 km,19900,Diesel,1,Bern,['02'],47.02757263183594,7.242457866668701
1733471143-132,ROLLER TEAM Zefiro 285 TL13,"Hauptstrasse 70, 8546 Islikon",CHF 61'980.–,61980,26'980 km,26980,Diesel,1,Luzern,['03'],47.040523529052734,8.134263038635254
1733471145-133,"VW Kastenwagen mit festem Hochdach, großem Fahrkomfort und Dusche","Grubenstrasse 24, 8620 Wetzikon",CHF 53'900.–,53900,64'250 km,64250,Diesel,1,Luzern,['03'],47.04475021362305,8.191388130187988
1733471150-135,FIAT Ducato 290/14,"Grubenstrasse 7, 8957 Spreitenbach",CHF 19'900.–,19900,90'900 km,90900,Diesel,1,Zürich,['01'],47.31379699707031,8.796833038330078
1733471152-136,SUN LIVING A-SERIES A75 SL (A248),"Wannenweg 1, 4133 Pratteln",CHF 76'900.–,76900,20'000 km,20000,Diesel,1,Zürich,['01'],47.31379699707031,8.796833038330078
1733471155-137,KNAUS Sky TI 700 MG auf Basis Fiat Ducato,"Gewerbestrasse 1, 8451 Kleinandelfingen",CHF 54'400.–,54400,39'500 km,39500,Diesel,1,Zürich,['01'],47.31379699707031,8.796833038330078
1733471157-138,MERCEDES-BENZ Marco Polo 220 d  Trend Automat,"Kühlhausstrasse 2, 4900 Langenthal",CHF 62'800.–,62800,12'900 km,12900,Diesel,1,Zürich,['01'],47.31379699707031,8.796833038330078
1733471160-139,MERCEDES-BENZ Marco Polo 300 d 4M Automat,"Stauffacherstrasse 145, 3000 Bern 22",CHF 103'900.–,103900,10'000 km,10000,Diesel,1,Zürich,['01'],47.31379699707031,8.796833038330078
1733471162-140,VW 2.0 TDI MareMonti SURF Camper 5Sitze,"Thalerstrasse 46a, 9424 Rheineck",CHF 36'900.–,36900,88'000 km,88000,Diesel,1,Basel-Landschaft,['13'],47.523582458496094,7.711702823638916
1733471165-141,MERCEDES-BENZ Vario 4x4,"Dorf 10, 9127 St. Peterzell",CHF 43'500.–,43500,29'000 km,29000,Diesel,1,St. Gallen,['17'],47.467018127441406,9.58243179321289
1733471167-142,VW T6 California 2.0 Bi-TDI Ocean 4Motion,"Gimmerz 54, 3283 Kallnach",CHF 56'000.–,56000,82'000 km,82000,Diesel,1,St. Gallen,['17'],47.47590255737305,9.550376892089844
1733471170-143,CONCORDE Centurion 910 LI,"Mittler-Langnau 1, 6105 Schachen LU",CHF 332'000.–,332000,23'000 km,23000,Diesel,1,Luzern,['03'],47.0927734375,8.318682670593262
1733471175-145,RENAULT MASTER,"Felsenaustrasse 15 / Raschärenstrasse 23, 7000 Chur",CHF 28'999.–,28999,138'000 km,138000,Diesel,1,Vaud,['22'],46.73106002807617,6.534222602844238
1733471177-146,"VW T6.1 California Ocean Edition 4Motion Camper mit fester Küche, elektrischem Aufstelldach und Standheizung","Grubenstrasse 24, 8620 Wetzikon",CHF 63'900.–,63900,80'164 km,80164,Diesel,1,Luzern,['03'],47.04475021362305,8.191388130187988
1733471185-149,VW T6.1 California Ocean,"Grubenstrasse 24, 8620 Wetzikon",CHF 54'900.–,54900,86'148 km,86148,Diesel,1,Schaffhausen,['14'],47.741600036621094,8.709936141967773
1733471188-150,VW T6.1 California Beach EDITION_4X4,"Grubenstrasse 24, 8620 Wetzikon",CHF 59'900.–,59900,63'362 km,63362,Diesel,1,Thurgau,['20'],47.54833221435547,8.849271774291992
1733471190-151,SUN LIVING S-SERIES S72 DL (A260),"Wannenweg 1, 4133 Pratteln",CHF 73'900.–,73900,17'500 km,17500,Diesel,1,Schaffhausen,['14'],47.741600036621094,8.709936141967773
1733471195-152,VW 2.0 TDI 105 PS MareMonti SURF Camper 6Sitze,"Thalerstrasse 46a, 9424 Rheineck",CHF 36'899.–,36899,72'000 km,72000,Diesel,1,Luzern,['03'],47.23344039916992,7.90991735458374
1733471200-154,VW T6 California 2.0 Bi-TDI Ocean 4Motion,"Buholzstrasse 40, 6032 Emmen",CHF 67'900.–,67900,48'501 km,48501,Diesel,1,Ticino,['21'],46.20896911621094,9.038769721984863
1733471203-155,VW Cal. BiTDI Oce.Ed.Lib 4MA,"Murtenstrasse 112, 3202 Frauenkappelen  ( Bern)",CHF 77'899.–,77899,30'000 km,30000,Diesel,1,Thurgau,['20'],47.54833221435547,8.849271774291992
1733471205-156,CARADO,1350 Orbe,CHF 52'500.–,52500,12'890 km,12890,Diesel,1,St. Gallen,['17'],47.467018127441406,9.58243179321289
1733471210-158,TOYOTA Hiace /  Schlafmobil,"Botzen 14, 8416 Flaach (bei Winterthur)",CHF 19'999.–,19999,52'500 km,52500,Diesel,1,St. Gallen,['17'],47.25289535522461,9.001060485839844
1733471212-159,FIAT 230/18,"Niderämterstrasse 39, 4657 Dulliken",CHF 16'500.–,16500,142'984 km,142984,Diesel,1,Zürich,['01'],47.51407241821289,8.693832397460938
1733471215-160,"RAPIDO V62 640 SPEZIAL 2,3 DIESEL 9G-AUTOMAT FIAT DUCATO MJ 160","Zollstrasse 33, 8240 Thayngen(SH)",CHF 62'997.–,62997,21'459 km,21459,Diesel,1,Zürich,['01'],47.341331481933594,8.807897567749023
1733471217-161,ROLLER TEAM Livingstone Duo Advance L12,"Hauptstrasse 70, 8546 Islikon",CHF 52'970.–,52970,57'600 km,57600,Diesel,1,Luzern,['03'],47.0927734375,8.318682670593262
1733471220-162,"CITROEN JUMPY 1,6 HDI DIESEL","Zollstrasse 33, 8240 Thayngen(SH)",CHF 14'997.–,14997,169'985 km,169985,Diesel,1,Aargau,['19'],47.38629913330078,8.133002281188965
1733471222-163,DETHLEFFS EG-DF002,"Tannbachstrasse 2, 6264 Pfaffnau",CHF 13'900.–,13900,183'000 km,183000,Diesel,1,Aargau,['19'],47.458194732666016,8.346111297607422
1733471225-164,ITINEO MB 740 Fiat,"Chemin des Eglantines 6, 1214 Vernier",CHF 49'990.–,49990,16'000 km,16000,Diesel,1,Zürich,['01'],47.334293365478516,8.798748016357422
1733471228-165,ADRIA TWIN PLUS 640 SLB,"Via San Gottardo 120, 6500 Bellinzona",CHF 71'190.–,71190,14'000 km,14000,Diesel,1,Thurgau,['20'],47.54833221435547,8.849271774291992
1733471230-166,ETRUSCO T6900 SB E1,"Hauptstrasse 70, 8546 Islikon",CHF 66'780.–,66780,14'500 km,14500,Diesel,1,Luzern,['03'],47.04475021362305,8.191388130187988
1733471232-167,VW VW T6 2.0 TDI MAREMONTI COMFORT CAMPER 5SITZE,"Thalerstrasse 46a, 9424 Rheineck",CHF 42'900.–,42900,65'000 km,65000,Diesel,1,Luzern,['03'],47.04475021362305,8.191388130187988
1733471235-168,MERCEDES-BENZ Marco Polo 250 d 7G-Tronic,"Il Stutz 15, 7018 Flims Waldhaus",CHF 54'500.–,54500,102'000 km,102000,Diesel,1,Luzern,['03'],47.04475021362305,8.191388130187988
1733471237-169,FORD Nugget Trend L1,"Breitenstrasse 1, 8725 Gebertingen",CHF 58'000.–,58000,21'500 km,21500,Diesel,1,Luzern,['03'],47.04475021362305,8.191388130187988
1733471239-170,RIMOR Evo 95   Längsbetten,"Riedhofstrasse 57, 8408 Winterthur",CHF 64'900.–,64900,16'000 km,16000,Diesel,1,Uri,['04'],46.8880729675293,8.614900588989258
1733471242-171,WEINSBERG 631,"Pfäffikerstrasse 28, 8331 Auslikon",CHF 21'990.–,21990,82'400 km,82400,Diesel,1,St. Gallen,['17'],47.25289535522461,9.001060485839844
1733471247-172,OPEL VIVARO,"Buholzstrasse 40, 6032 Emmen",CHF 8'900.–,8900,252'672 km,252672,Diesel,1,St. Gallen,['17'],47.25289535522461,9.001060485839844
1733471250-173,VW T6 California 2.0 Bi-TDI Beach Liberty 4Motion,"Korbackerweg 27, 5502 Hunzenschwil AG",CHF 33'800.–,33800,192'000 km,192000,Diesel,1,Fribourg,['10'],46.60606384277344,7.072765827178955
1733471252-174,MERCEDES-BENZ Marco Polo 300 d 4M Automat,"Otelfingerstrasse 44, 5430 Wettingen",CHF 76'900.–,76900,60'000 km,60000,Diesel,1,Zürich,['01'],47.47664260864258,8.702418327331543
1733471255-175,MERCEDES-BENZ Marco Polo 300 d 4M Automat,"Industriestrasse 11, 8620 Wetzikon",CHF 89'900.–,89900,27'000 km,27000,Diesel,1,Bern,['02'],47.00143051147461,7.273756980895996
1733471259-176,ETRUSCO V 6.6 SF V1,"Hauptstrasse 70, 8546 Islikon",CHF 56'880.–,56880,25'800 km,25800,Diesel,1,Zug,['09'],47.21332931518555,8.564812660217285
1733471261-177,DETHLEFFS Advantage I 7051 EB,"Eistrasse 1, 6102 Malters",CHF 34'900.–,34900,160'999 km,160999,Diesel,1,St. Gallen,['17'],47.467018127441406,9.58243179321289
1733471264-178,SUNLIGHT Capron I69S,"Eistrasse 1, 6102 Malters",CHF 49'900.–,49900,106'000 km,106000,Diesel,1,Fribourg,['10'],46.838157653808594,6.865045547485352
1733471268-180,DETHLEFFS Trend I 7057DBM,"Eistrasse 1, 6102 Malters",CHF 47'500.–,47500,110'000 km,110000,Diesel,1,Bern,['02'],46.74657440185547,7.642361640930176
1733471271-181,FORD Transit C Nugget 320 L1 2.0 TDCi 185 Aufstelldach,"Grossriedstrasse 13, 6462 Seedorf",CHF 49'500.–,49500,39'000 km,39000,Diesel,1,Vaud,['22'],46.76424026489258,6.64890193939209
1733471273-182,VW T6 California 2.0 TDI Beach,"Breitenstrasse 1, 8725 Gebertingen",CHF 34'900.–,34900,153'500 km,153500,Diesel,1,St. Gallen,['17'],47.467018127441406,9.58243179321289
1733471275-183,VW Camper Multivan,"Breitenstrasse 1, 8725 Gebertingen",CHF 42'900.–,42900,104'700 km,104700,Diesel,1,Obwalden,['06'],46.93598937988281,8.275261878967285
1733471278-184,FIAT Ducato 280 / 14,"Route de la Parqueterie 23, 1635 La Tour-de-Trême",CHF 2'990.–,2990,190'000 km,190000,Diesel,1,Ticino,['21'],46.15255355834961,8.952432632446289
1733471283-186,AHORN Van 620,"Sahlimatte 200, 3036 Detligen",CHF 51'900.–,51900,36'000 km,36000,Diesel,1,Ticino,['21'],46.15255355834961,8.952432632446289
1733471285-187,MERCEDES-BENZ Sprinter Camper L3 H2,"Ruessenstrasse 11, 6340 Baar",CHF 84'000.–,84000,190'000 km,190000,Diesel,1,Bern,['02'],47.05879211425781,7.230997562408447
1733471290-189,FORD Econoline Van Midway,"La Guérite 60, 1541 Sévaz",CHF 9'999.–,9999,125'000 km,125000,Benzin,0,Bern,['02'],46.88613510131836,7.635671138763428
1733471292-190,MERCEDES-BENZ Sprinter CAMPER 413 CDI 4x4,"Via serta 14, 6814 Lamone (Ticino)",CHF 49'900.–,49900,26'000 km,26000,Diesel,1,Bern,['02'],47.21744155883789,7.783696174621582
1733471294-191,VW T6 California 2.0 TDI Beach 4Motion,"Staatsstrasse 156, 3626 Hünibach",CHF 51'900.–,51900,43'850 km,43850,Diesel,1,Thurgau,['20'],47.56113815307617,9.13205337524414
1733471300-192,VW T6 California 2.0 TDI Beach Liberty 4Motion,"Route de Lausanne 22, 1400 Yverdon-les-bains",CHF 29'900.–,29900,285'000 km,285000,Diesel,1,Ticino,['21'],46.20896911621094,9.038769721984863
1733471302-193,VW VW T6 2.0 TDI 150kw 4Motion DSG MareMonti SURF Camper 6Sitze,"Thalerstrasse 46a, 9424 Rheineck",CHF 45'900.–,45900,16'000 km,16000,Diesel,1,Zürich,['01'],47.52054214477539,8.79157543182373
1733471307-195,BÜRSTNER Argos A 747 Alde Heizung - Anhängerkupplung- Klima,"via san gottardo 38, 6593 cadenazzo",CHF 47'900.–,47900,101'000 km,101000,Diesel,1,Bern,['02'],47.22997283935547,7.653196334838867
1733471310-196,FIAT mit Aufbau zum Ausbauen,"Sinserstrasse 400, 6330 Cham ZG",CHF 27'880.–,27880,16'000 km,16000,Diesel,1,Luzern,['03'],47.26013946533203,8.240265846252441
1733471312-197,ELNAGH Columbia 111,"via san gottardo 38, 6593 cadenazzo",CHF 13'503.–,13503,191'000 km,191000,Diesel,1,Schwyz,['05'],47.0999870300293,8.67253589630127
1733471315-198,MERCEDES-BENZ 4x4 Larag mit Uniqcab-Aufbau,"Aarbergstrasse 10, 3272 Walperswil",CHF 79'000.–,79000,73'000 km,73000,Benzin,0,Zürich,['01'],47.60587692260742,8.68687629699707
1733471317-199,CARADO A464,"Linth-Escherstr. 5a/ 2. OCC Platz Hauptstrasse 61, 8865 Bilten",CHF 54'500.–,54500,42'000 km,42000,Diesel,1,Aargau,['19'],47.37629699707031,8.298477172851562
1733471322-201,MERCEDES-BENZ Marco Polo 300 d 4M Automat,"Kühlhausstrasse 2, 4900 Langenthal",CHF 69'700.–,69700,33'600 km,33600,Diesel,1,Thurgau,['20'],47.612152099609375,9.169289588928223
1733471324-202,FIAT Knaus Querbett mit Heckgarage,"Oberfeldstrasse 13, 8570 Weinfelden",CHF 22'900.–,22900,74'220 km,74220,Diesel,1,Zürich,['01'],47.60587692260742,8.68687629699707
1733471328-203,ADRIA ACTIVE PRO 2.0,"Via San Gottardo 120, 6500 Bellinzona",CHF 56'500.–,56500,15'000 km,15000,Diesel,1,Aargau,['19'],47.414127349853516,8.164999961853027
1733471330-204,VW T6.1 California 2.0 TDI Ocean Liberty,"Wiswandstrasse 6, 8542 Wiesendangen",CHF 52'900.–,52900,31'000 km,31000,Diesel,1,St. Gallen,['17'],47.36394500732422,9.074725151062012
1733471333-205,MERCEDES-BENZ Marco Polo 250 d  4M Automat,"Stauffacherstrasse 145, 3000 Bern 22",CHF 85'900.–,85900,16'500 km,16500,Diesel,1,Thurgau,['20'],47.527305603027344,9.03041934967041
1733471335-206,ADRIA Sun Living 75 SL,"Unterholz 1c, 3380 Wangen an der Aare",CHF 55'000.–,55000,39'000 km,39000,Diesel,1,Zürich,['01'],47.45183181762695,8.701164245605469
1733471339-207,VW T5 California 2.0 TDI Beach Last Edition,"Gigennagelstrasse 2, 6287 Aesch LU",CHF 31'900.–,31900,134'000 km,134000,Diesel,1,Zürich,['01'],47.45183181762695,8.701164245605469
1733471342-208,ROLLER TEAM 284 HLT,"Landstrasse 10, 6418 Rothenthurm",CHF 64'500.–,64500,32'300 km,32300,Diesel,1,St. Gallen,['17'],47.467018127441406,9.58243179321289
1733471345-209,CITROEN TYPE-H Campervan,"Gewerbestrasse 1, 8451 Kleinandelfingen",CHF 79'700.–,79700,24'000 km,24000,Diesel,1,Aargau,['19'],47.361507415771484,8.051010131835938
1733471350-211,VW T4 WESTFALIA California Coach,"Rue de la Promenade 1, 2316 Ponts-de-Martel",CHF 26'000.–,26000,83'600 km,83600,Diesel,1,St. Gallen,['17'],47.31846237182617,9.172804832458496
1733471360-213,BIMOBIL EX 755 Sonderbau auf Basis Mercedes-Benz Actros 1832 (Wohnmobil),"Gewerbestrasse 1, 8451 Kleinandelfingen",CHF 339'000.–,339000,292'000 km,292000,Diesel,1,Aargau,['19'],47.53379821777344,7.885025501251221
1733471366-215,MONACO Windsor 38 PBS,"Lenzburgerstrasse 6, 5103 Wildegg",CHF 79'900.–,79900,263'500 km,263500,Diesel,1,Thurgau,['20'],47.56602096557617,9.091235160827637
1733471370-216,"ETRUSCO CV 600DB, Fiat Ducato 2.3MJT 140PS","Hofackerstrasse 7, 9606 Bütschwil",CHF 49'900.–,49900,51'500 km,51500,Diesel,1,Luzern,['03'],47.040523529052734,8.134263038635254
1733471372-217,FIAT Ducato Capron EG/CF D02 Wohnmobil 6 Plätzer,"Hauptstrasse 1, 9556 Affeltrangen",CHF 52'900.–,52900,17'000 km,17000,Diesel,1,Vaud,['22'],46.85153579711914,6.718847751617432
1733471382-219,CHEVROLET 1500 Van,8310 Kemptthal,CHF 19'990.–,19990,81'000 km,81000,Benzin,0,Luzern,['03'],47.087825775146484,8.315750122070312
1733471385-220,VW VW T6 2.O TDI MAREMONTI SURF CAMPER LIGHT 6SITZE,"Thalerstrasse 46a, 9424 Rheineck",CHF 28'900.–,28900,98'000 km,98000,Diesel,1,Zürich,['01'],47.60587692260742,8.68687629699707
1733471388-221,NIESMANN + BISCHOFF Arto 79F 180PS Vollausstattung,"Mönchmattweg 3, 5035 Unterentfelden",CHF 89'800.–,89800,48'500 km,48500,Diesel,1,Valais,['23'],46.27153396606445,7.519195079803467
1733471390-222,MAZDA E 2000 Combi       SR1LC2,"Stationstrasse 56, 8623 Wetzikon",CHF 8'700.–,8700,127'000 km,127000,Benzin,0,Nidwalden,['07'],46.965248107910156,8.383917808532715
1733471393-223,SAURER 2DM 4x4 Wohnmobil,"Dorf 10, 9127 St. Peterzell",CHF 17'500.–,17500,13'900 km,13900,Diesel,1,Zürich,['01'],47.45183181762695,8.701164245605469
1733471395-224,FIAT Challenger  Mageo 118,"Hauptstrasse 70 A, 9105 Schönengrund",CHF 38'990.–,38990,40'000 km,40000,Diesel,1,Thurgau,['20'],47.56113815307617,9.13205337524414
1733471401-226,FIAT Ducato 2.3JTD 130PS PILOT ***TOP AUSSTATTUNG***,"Brunnenwiesenstrasse 8, 8570 Weinfelden",CHF 41'900.–,41900,85'000 km,85000,Diesel,1,Solothurn,['11'],47.48995590209961,7.505771160125732
1733471404-227,FIAT Ducato 2.2JTD 180PS ETRUSCO ***AUTOMAT-2x 1.4mx1.95 BETT***,"Brunnenwiesenstrasse 8, 8570 Weinfelden",CHF 62'900.–,62900,35'000 km,35000,Diesel,1,St. Gallen,['17'],47.43525695800781,9.349658966064453
1733471408-228,CONCORDE Carver 920 G,"Mittler-Langnau 1, 6105 Schachen LU",CHF 313'900.–,313900,10'705 km,10705,Diesel,1,Thurgau,['20'],47.54833221435547,8.849271774291992
1733471429-229,VW Joker Typ 2,"Route cantonale 13, 1426 Concise",CHF 29'000.–,29000,162'000 km,162000,Benzin,0,Jura,['26'],47.3612174987793,7.31329870223999
1733471434-230,CHALLENGER Birthday 33 - Ford 140 PS,"Belpstr. 30 A, 3122 Kehrsatz",CHF 39'900.–,39900,78'624 km,78624,Diesel,1,Luzern,['03'],47.04475021362305,8.191388130187988
1733471438-231,BÜRSTNER Lineo C 590,"Buholzstrasse 26, 6032 Emmen",CHF 59'990.–,59990,18'700 km,18700,Diesel,1,Luzern,['03'],47.04475021362305,8.191388130187988
1733471445-232,VW Amarok 4x4 mit GEOCAR Condor plus Wohnkabine,"Gewerbestrasse 1, 8451 Kleinandelfingen",CHF 89'900.–,89900,58'000 km,58000,Diesel,1,Luzern,['03'],47.23719024658203,8.074947357177734
1733471448-233,MERCEDES-BENZ Marco Polo 250 d 7G-Tronic,"ROUTE DE CHIPPIS 47, 3966 Chalais",CHF 39'900.–,39900,144'000 km,144000,Diesel,1,St. Gallen,['17'],47.467018127441406,9.58243179321289
1733471451-234,MERCEDES-BENZ Vito 220d,"Rieden 10, 6370 Stans",CHF 42'800.–,42800,62'000 km,62000,Diesel,1,Bern,['02'],47.07384490966797,7.588680267333984
1733471454-235,ADRIA 665SP,8310 Kemptthal,CHF 32'990.–,32990,138'900 km,138900,Diesel,1,Fribourg,['10'],46.838157653808594,6.865045547485352
1733471456-236,FIAT Adria Sport Queensbett Nutzlast von 731 KG,"Oberfeldstrasse 13, 8570 Weinfelden",CHF 40'900.–,40900,60'800 km,60800,Diesel,1,Fribourg,['10'],46.79677963256836,7.255855083465576
1733471459-237,FIAT Fiat Ducato Elnagh Duke 48 Alkhoven,"Kehlhof 6, 8409 Winterthur-Hegi",CHF 38'500.–,38500,66'000 km,66000,Diesel,1,Bern,['02'],47.07384490966797,7.588680267333984
1733471462-238,ETRUSCO Fiat Ducato  640 SB Complete Selection,"Hauptstrasse 46, 4112 Bättwil",CHF 68'000.–,68000,18'500 km,18500,Diesel,1,Ticino,['21'],46.20896911621094,9.038769721984863
1733471466-239,VW T6.1 California 2.0 TDI Ocean Edition Liberty,"St. Gallerstrasse 99, 9032 Engelburg",CHF 62'900.–,62900,24'500 km,24500,Diesel,1,Bern,['02'],46.77484130859375,7.5861101150512695
1733471469-240,ETRUSCO V 6.6 SF V2,"Hauptstrasse 70, 8546 Islikon",CHF 59'780.–,59780,15'500 km,15500,Diesel,1,Fribourg,['10'],46.90143585205078,7.227672576904297
1733471484-242,CARTHAGO Malibu Van 600 DSB 4,"Eistrasse 1, 6102 Malters",CHF 39'900.–,39900,118'800 km,118800,Diesel,1,Vaud,['22'],46.96083068847656,7.030811309814453
1733471493-243,SUNLIGHT Fiat Capron T 68,"Eistrasse 1, 6102 Malters",CHF 38'900.–,38900,156'000 km,156000,Diesel,1,Luzern,['03'],47.04475021362305,8.191388130187988
1733471500-244,VW T6 California 2.0 TDI Ocean,"Kantonsstrasse 73, 6234 Triengen",CHF 47'000.–,47000,85'000 km,85000,Diesel,1,Bern,['02'],47.15473556518555,7.0145392417907715
1733471503-245,VW 2.0 TDI 4 MOTION DSG CAMPER 3SITZE,"Thalerstrasse 46a, 9424 Rheineck",CHF 11'900.–,11900,196'998 km,196998,Diesel,1,Schwyz,['05'],47.1705436706543,8.987462043762207
1733471506-246,VW T6.1 California 2.0 TDI Ocean Edition Liberty,"Schachenstrasse 31, 3421 Lyssach",CHF 62'900.–,62900,33'000 km,33000,Diesel,1,Luzern,['03'],47.0927734375,8.318682670593262
1733471508-247,ROLLER TEAM Living 2 automat.,"La Guérite 60, 1541 Sévaz",CHF 52'900.–,52900,66'000 km,66000,Diesel,1,Ticino,['21'],46.15255355834961,8.952432632446289
1733471510-248,VW T6.1 California 2.0 Bi-TDI Ocean Liberty,"Aecherli 3, 1715 Alterswil",CHF 79'500.–,79500,10'000 km,10000,Diesel,1,Fribourg,['10'],46.79677963256836,7.255855083465576
1733471513-249,SUNLIGHT A70 Alkoven,"Schachenstrasse 31, 3421 Lyssach",CHF 69'900.–,69900,20'000 km,20000,Diesel,1,Luzern,['03'],47.26013946533203,8.240265846252441
1733471516-250,SUN LIVING C SERIES 65 SL,"Via San Gottardo 120, 6500 Bellinzona",CHF 62'269.–,62269,16'000 km,16000,Diesel,1,St. Gallen,['17'],47.45929718017578,9.612757682800293
1733471518-251,"NISSAN Michelangelo, Westfalia-Aufbau","Glütschbachstrasse 100, 3661 Uetendorf",CHF 49'850.–,49850,47'900 km,47900,Diesel,1,Aargau,['19'],47.55230712890625,7.850740432739258
1733471526-252,FORD Dethleffs possl Fortuna,"auriedstrasse 65, 3178 Bösingen",CHF 21'500.–,21500,112'000 km,112000,Diesel,1,Fribourg,['10'],46.828243255615234,7.1501336097717285
1733471538-255,SUNLIGHT I 69L,"Eistrasse 1, 6102 Malters",CHF 49'900.–,49900,115'000 km,115000,Diesel,1,Aargau,['19'],47.458194732666016,8.346111297607422
1733471541-256,VW T5 California 2.0 Bi-TDI Comfortline 4Motion,"Rue Principale 62, 2613 Villeret",CHF 38'900.–,38900,152'000 km,152000,Diesel,1,Aargau,['19'],47.414127349853516,8.164999961853027
1733471546-257,PHOENIX PhoeniX TopX-Alkoven 8900,"Industriestrasse 13, 8864 Reichenburg",CHF 324'999.–,324999,10'718 km,10718,Diesel,1,Thurgau,['20'],47.56602096557617,9.091235160827637
1733471548-258,VW T6 California 2.0 TDI Beach Liberty 4Motion,"Buholzstrasse 40, 6032 Emmen",CHF 40'600.–,40600,82'529 km,82529,Diesel,1,Luzern,['03'],47.133209228515625,8.196508407592773
1733471553-259,ELNAGH King 55 G Klima - Solar - Sat - Luftfederung,"via san gottardo 38, 6593 cadenazzo",CHF 39'900.–,39900,54'186 km,54186,Diesel,1,Luzern,['03'],47.138427734375,8.13077449798584
1733471558-260,VW T6.1 California 2.0 TDI Ocean Edition Liberty,"Aecherli 3, 1715 Alterswil",CHF 67'000.–,67000,17'800 km,17800,Diesel,1,Genève,['25'],46.155582427978516,6.0946760177612305
1733471561-261,VW T6 California 2.0 TDI Beach Edition,"Gigennagelstrasse 2, 6287 Aesch LU",CHF 47'900.–,47900,62'000 km,62000,Diesel,1,Thurgau,['20'],47.527305603027344,9.03041934967041
1733471564-262,FORD Transit Custom 320 L1H1 A,"Nebengraben 5, 9430 St Margrethen",CHF 54'900.–,54900,49'980 km,49980,Diesel,1,Schaffhausen,['14'],47.653587341308594,8.854190826416016
1733471567-263,FIAT Capron Sunlight T68,"Bahnhofstrasse 166, 4313 Möhlin",CHF 69'800.–,69800,53'000 km,53000,Diesel,1,St. Gallen,['17'],47.36394500732422,9.074725151062012
1733471570-264,MERCEDES-BENZ Marco Polo 300 d 4M A,"Route d'Englisberg 4, 1763 Granges-Paccot",CHF 70'900.–,70900,46'300 km,46300,Diesel,1,Thurgau,['20'],47.54833221435547,8.849271774291992
1733471572-265,HYMER B504 SL,"Sägastrasse 34, 9485 Nendeln",CHF 34'800.–,34800,151'799 km,151799,Diesel,1,St. Gallen,['17'],47.24050521850586,8.932645797729492
1733471575-266,RENAULT TRAFIC L1H1 Camper,8957 Spreitenbach (Hauptsitz),CHF 31'800.–,31800,43'728 km,43728,Diesel,1,Ticino,['21'],46.20896911621094,9.038769721984863
1733471581-268,KNAUS SUN TI 700 MEG,"Lenzburgerstrasse 6, 5103 Wildegg",CHF 59'900.–,59900,20'740 km,20740,Diesel,1,Jura,['26'],47.3612174987793,7.31329870223999
1733471583-269,VW T6 California 2.0 Bi-TDI Beach Liberty 4Motion,"Brunnenwiesenstrasse 8, 8570 Weinfelden",CHF 39'900.–,39900,159'500 km,159500,Diesel,1,Bern,['02'],47.070621490478516,7.59507942199707
1733471586-270,VW T6.1 California 2.0 TDI Ocean Last Edition,"Ebersmoos 1, 6204 Sempach",CHF 71'900.–,71900,14'000 km,14000,Diesel,1,Bern,['02'],47.282169342041016,7.3807477951049805
1733471591-271,VW Caddy 2.0 TDI 4Motion California,"Eybachstrasse 2, 6207 Nottwil",CHF 32'900.–,32900,85'000 km,85000,Diesel,1,Bern,['02'],47.25844192504883,7.666701316833496
1733471598-272,VW California TDI Ocean A,"276 Rte de St Julien, 1258 PERLY",CHF 49'900.–,49900,65'000 km,65000,Diesel,1,Fribourg,['10'],46.838157653808594,6.865045547485352
1733471601-273,FIAT 238 Camper,"Hauptstrasse 1, 9556 Affeltrangen",CHF 3'800.–,3800,81'286 km,81286,Benzin,0,Ticino,['21'],46.15255355834961,8.952432632446289
1733471605-274,HYMER B 680 MC T,"Kaltenbacherstrasse 30, 8260 Stein am Rhein",CHF 92'500.–,92500,13'500 km,13500,Diesel,1,St. Gallen,['17'],47.47590255737305,9.550376892089844
1733471611-276,ROLLER TEAM Zefiro 267 / TL10,"Hauptstrasse 70, 8546 Islikon",CHF 69'880.–,69880,17'980 km,17980,Diesel,1,St. Gallen,['17'],47.36394500732422,9.074725151062012
1733471616-277,VW T6 California 2.0 Bi-TDI Ocean,"Twirrenstrasse 2, 8733 Eschenbach",CHF 53'900.–,53900,36'500 km,36500,Diesel,1,Zürich,['01'],47.60587692260742,8.68687629699707
1733471619-278,ADRIA CORAL XL AXESS 600 DP,"Via San Gottardo 120, 6500 Bellinzona",CHF 67'870.–,67870,17'000 km,17000,Diesel,1,Fribourg,['10'],46.838157653808594,6.865045547485352
1733471625-280,VW T5 Multivan 2.5 TDI 131 Startline,"Hinterdorfstr. 5, 3550 Langnau i.E.",CHF 15'900.–,15900,215'000 km,215000,Diesel,1,Zürich,['01'],47.40474319458008,8.719557762145996
1733471637-284,RIMOR Fiat Horus 145 RAMON,"Niederbippstrasse 3, 4538 Oberbipp",CHF 58'500.–,58500,36'700 km,36700,Diesel,1,Bern,['02'],47.14973831176758,6.9913153648376465
1733471640-285,PÖSSL Globecar R Automat.,"La Guérite 60, 1541 Sévaz",CHF 46'900.–,46900,50'800 km,50800,Diesel,1,Basel-Stadt,['12'],47.570777893066406,7.576108455657959
1733471644-286,PÖSSL Globecar Campscout 640 Automatikgetriebe,"via san gottardo 38, 6593 cadenazzo",CHF 39'900.–,39900,77'600 km,77600,Diesel,1,Aargau,['19'],47.4912223815918,8.338791847229004
1733471650-287,OPEL Vivaro B 16CDTi Camper Van,"Buechbergstrasse 10, 9422 Staad SG",CHF 29'900.–,29900,134'869 km,134869,Diesel,1,Bern,['02'],47.07384490966797,7.588680267333984
1733471660-288,OPEL Life Edition Camper,"Rue de la Croix 22 (ZI), 2822 Courroux",CHF 52'800.–,52800,29'900 km,29900,Diesel,1,Aargau,['19'],47.205604553222656,8.369141578674316
1733471663-289,ETRUSCO I 6900 SB *Hymer-Gruppe* Fiat Ducato 2.3MJT 140PS,"Hofackerstrasse 7, 9606 Bütschwil",CHF 66'900.–,66900,20'000 km,20000,Diesel,1,Bern,['02'],46.9282341003418,7.560643196105957
1733471667-290,DETHLEFFS Trend T7057 EB,"Gewerbestrasse 1, 8451 Kleinandelfingen",CHF 85'870.–,85870,15'000 km,15000,Diesel,1,Ticino,['21'],46.20896911621094,9.038769721984863
1733471676-292,KNAUS Vansation 550,"Hauptstrasse 216, 4565 Recherswil",CHF 52'777.–,52777,54'200 km,54200,Diesel,1,Zürich,['01'],47.60587692260742,8.68687629699707
1733471680-293,BÜRSTNER Aviano 709,"Im Chrummenacher 8, 8308 Illnau",CHF 42'900.–,42900,55'800 km,55800,Diesel,1,St. Gallen,['17'],47.36394500732422,9.074725151062012
1733471683-294,VW T6.1 California 2.0 TDI Beach Liberty 4Motion,"C.F.L. Lohnerstrasse 25, 3645 Gwatt (Thun)",CHF 62'000.–,62000,75'000 km,75000,Diesel,1,Bern,['02'],47.11088943481445,7.3141961097717285
1733471686-295,FIAT Ducato CAPRON A464,"Via serta 14, 6814 Lamone (Ticino)",CHF 49'900.–,49900,86'000 km,86000,Diesel,1,Solothurn,['11'],47.15408706665039,7.592122554779053
1733471692-297,VW Caddy 1.5 TSI California Spirit DSG,"Rue Baptiste-Savoye 16, 2610 St-Imier",CHF 35'900.–,35900,30'700 km,30700,Benzin,0,Bern,['02'],47.25844192504883,7.666701316833496
1733471696-298,FIAT LMC T 662,"Voltastrasse 89, 4056 Basel",CHF 53'900.–,53900,15'051 km,15051,Diesel,1,Thurgau,['20'],47.555763244628906,9.370901107788086
1733471699-299,FIAT 15Q 2.3 JTD L2-H2 CAMPER,"Breitwies 5, 5420 Ehrendingen",CHF 35'800.–,35800,120'000 km,120000,Diesel,1,Thurgau,['20'],47.555763244628906,9.370901107788086
1733471702-300,MERCEDES-BENZ Marco Polo 300 d lang 4M Automat,"Schachenstrasse 31, 3421 Lyssach",CHF 74'900.–,74900,30'000 km,30000,Diesel,1,Fribourg,['10'],46.838157653808594,6.865045547485352
1733471704-301,VW T5 California 2.0 TDI,"Kreuzfeldstrasse 2, 5644 Auw",CHF 15'800.–,15800,270'000 km,270000,Diesel,1,St. Gallen,['17'],47.380245208740234,9.089670181274414
1733471707-302,VW 1.9 TDI,"Bernstrasse 26, 3076 Worb",CHF 27'900.–,27900,149'000 km,149000,Diesel,1,St. Gallen,['17'],47.36394500732422,9.074725151062012
1733471710-303,KNAUS BOX STAR 600,"Via San Gottardo 120, 6500 Bellinzona",CHF 53'898.–,53898,60'000 km,60000,Diesel,1,Zürich,['01'],47.44831466674805,8.430784225463867
1733471714-304,VW T2 CARAVELLE BLUESTAR Multivan Hannover Edition,"Rte de Lausanne 22, 1422 Grandson (Les Tuileries)",CHF 23'999.–,23999,151'000 km,151000,Diesel,1,St. Gallen,['17'],47.36394500732422,9.074725151062012
1733471716-305,VW T6.1 4x4 Octo-bus von Fischer Wohnmobile,"Gewerbestrasse 1, 8451 Kleinandelfingen",CHF 104'300.–,104300,65'000 km,65000,Diesel,1,Thurgau,['20'],47.555763244628906,9.370901107788086
1733471719-306,"DETHLEFFS Trend T 7057DBM, Fiat Ducato 2.2MJT 140PS","Hofackerstrasse 7, 9606 Bütschwil",CHF 64'900.–,64900,42'000 km,42000,Diesel,1,Zürich,['01'],47.503360748291016,8.780144691467285
1733471722-307,VW T6.1 California 2.0 TDI Ocean Edition Liberty,"Industriestrasse 5, 2557 Studen",CHF 64'900.–,64900,19'000 km,19000,Diesel,1,Luzern,['03'],47.22220230102539,8.159356117248535
1733471726-308,BÜRSTNER City Car 640 mit Einzelbett & Automat!,"Hauptstrasse 216, 4565 Recherswil",CHF 61'999.–,61999,15'900 km,15900,Diesel,1,Ticino,['21'],46.15255355834961,8.952432632446289
1733471730-309,VW T6 California 2.0 Bi-TDI Beach,"Belpbergstr. 3+5 / Seftigenstrasse 198, 3125 Toffen / 3084 Wabern",CHF 39'900.–,39900,191'000 km,191000,Diesel,1,St. Gallen,['17'],47.36394500732422,9.074725151062012
1733471737-311,SUNLIGHT Fiat A 70 Adventure,"Arbonerstrasse 1, 8599 Salmsach",CHF 54'999.–,54999,50'000 km,50000,Diesel,1,Luzern,['03'],47.12884521484375,8.325882911682129
1733471748-312,SUNLIGHT Fiat 160PS A 70 Adventure,"Arbonerstrasse 1, 8599 Salmsach",CHF 59'999.–,59999,50'000 km,50000,Diesel,1,Ticino,['21'],46.15255355834961,8.952432632446289
1733471751-313,SUNLIGHT V 60,"La Guérite 60, 1541 Sévaz",CHF 43'900.–,43900,18'900 km,18900,Diesel,1,Luzern,['03'],47.0927734375,8.318682670593262
1733471754-314,FIAT Ducato 2.2 L1 H1 Adventure,"Schulhausweg 4, 9608 Ganterschwil",CHF 25'000.–,25000,121'000 km,121000,Diesel,1,St. Gallen,['17'],47.36394500732422,9.074725151062012
1733471757-315,"CARTHAGO Chic I 47, Fiat- Iveco 3.0MJT 160PS","Hofackerstrasse 7, 9606 Bütschwil",CHF 39'900.–,39900,96'000 km,96000,Diesel,1,St. Gallen,['17'],47.43525695800781,9.349658966064453
1733471763-317,"DETHLEFFS Just Go T 7055EB, Ford 2.0EcoBlue 160PS","Hofackerstrasse 7, 9606 Bütschwil",CHF 68'900.–,68900,14'500 km,14500,Diesel,1,Bern,['02'],47.00143051147461,7.273756980895996
1733471770-319,OPEL VIVARO,"Im Geren 18, 8352 Elsau",CHF 58'000.–,58000,25'000 km,25000,Diesel,1,Fribourg,['10'],46.838157653808594,6.865045547485352
1733471774-320,VW T6.1 California 2.0 TDI Ocean Liberty 4Motion,"Brüelmattstrasse 8, 6221 Rickenbach LU",CHF 72'900.–,72900,22'100 km,22100,Diesel,1,Basel-Landschaft,['13'],47.508487701416016,7.721120357513428
1733471778-321,ADRIA 687 SL Automatik 3.8 ton - Hubbett - Alde Heizung - Anhängekupplung,"via san gottardo 38, 6593 cadenazzo",CHF 45'900.–,45900,46'450 km,46450,Diesel,1,Thurgau,['20'],47.58262252807617,9.168120384216309
1733471781-322,"DETHLEFFS Just 90 T 6812EB, Fiat Ducato 2.2MJT 140PS","Hofackerstrasse 7, 9606 Bütschwil",CHF 69'900.–,69900,16'000 km,16000,Diesel,1,Aargau,['19'],47.55230712890625,7.850740432739258
1733471791-325,HYMER B790 Masterline,"via san gottardo 38, 6593 cadenazzo",CHF 136'000.–,136000,29'320 km,29320,Diesel,1,Genève,['25'],46.2032470703125,6.135101795196533
1733471794-326,VW T6 California 2.0 TDI Beach Liberty,"Buholzstrasse 40, 6032 Emmen",CHF 40'200.–,40200,100'575 km,100575,Diesel,1,Bern,['02'],46.9282341003418,7.560643196105957
1733471797-327,"ETRUSCO Cv 640 ""Complete Selection"" Fiat Ducato 2.3MJT 140PS","Hofackerstrasse 7, 9606 Bütschwil",CHF 52'900.–,52900,61'000 km,61000,Diesel,1,Bern,['02'],46.77728271484375,7.579732418060303
1733471801-328,VW T6.1 California 2.0 TDI Ocean Last Edition,"St. Gallerstrasse 99, 9032 Engelburg",CHF 65'800.–,65800,33'400 km,33400,Diesel,1,Bern,['02'],46.77728271484375,7.579732418060303
1733471816-329,ROLLER TEAM LIVINGSTONE 2 ADVANCE - AUTOMAT! 140PS! ab MFK & Service!,"Johann-Renfer-Strasse 3, 2504 Biel/Bienne",CHF 53'390.–,53390,56'990 km,56990,Diesel,1,Thurgau,['20'],47.56706237792969,8.858413696289062
1733471818-330,AHORN Van 550,"Sahlimatte 200, 3036 Detligen",CHF 49'900.–,49900,24'500 km,24500,Diesel,1,Bern,['02'],46.774803161621094,7.615665435791016
1733471821-331,VW T6 California 2.0 TDI Ocean Liberty,"Z.I. du Moulin-du-Choc G, 1122 Romanel-sur-Morges",CHF 56'900.–,56900,32'300 km,32300,Diesel,1,Thurgau,['20'],47.54833221435547,8.849271774291992
1733471830-332,CARADO A366 6 places,"La Guérite 60, 1541 Sévaz",CHF 29'900.–,29900,113'500 km,113500,Diesel,1,Schaffhausen,['14'],47.741600036621094,8.709936141967773
1733471834-333,ADRIA CL 670SL Plus,"Rheinstrasse 50, 4414 Füllinsdorf",CHF 79'950.–,79950,57'500 km,57500,Diesel,1,Schaffhausen,['14'],47.741600036621094,8.709936141967773
1733471838-334,VW T6 2.0 TDI Wohnmobil (ähnlich California),"Hauptstrasse 69, 8572 Berg TG",CHF 42'900.–,42900,57'176 km,57176,Diesel,1,Zürich,['01'],47.46080017089844,8.519329071044922
1733471866-336,RANDGER R490 auto - 5 places,"Rte de Porrentruy 86, 2800 Delémont",CHF 54'900.–,54900,14'000 km,14000,Diesel,1,Schaffhausen,['14'],47.741600036621094,8.709936141967773
1733471868-337,VW T6.1 California 2.0 TDI Beach Liberty Spirit,"Via serta 14, 6814 Lamone (Ticino)",CHF 52'000.–,52000,67'000 km,67000,Diesel,1,Schaffhausen,['14'],47.741600036621094,8.709936141967773
1733471872-338,MERCEDES-BENZ Marco Polo 250 d  4M Automat,"Rue du Stand 3bis, 1204 Genève",CHF 69'900.–,69900,19'000 km,19000,Diesel,1,Zug,['09'],47.199859619140625,8.53844165802002
1733471880-340,FORD Ranger 2.5TDCi 4x4,"Bernstrasse 26, 3076 Worb",CHF 28'898.–,28898,180'000 km,180000,Diesel,1,Thurgau,['20'],47.56706237792969,8.858413696289062
1733471885-341,MERCEDES-BENZ Marco Polo Horiz 300 d 4M,"Industriestrasse 15, 3661 Uetendorf",CHF 94'900.–,94900,17'500 km,17500,Diesel,1,Bern,['02'],47.07444381713867,7.581071853637695
1733471888-342,MERCEDES-BENZ Marco Polo Horiz 250 d 4M,"Industriestrasse 15, 3661 Uetendorf",CHF 69'900.–,69900,13'500 km,13500,Diesel,1,Schaffhausen,['14'],47.741600036621094,8.709936141967773
1733471892-343,VW Grand California 600 2.0 BI-TDI,"Eichäckerstrasse 1, 8500 Frauenfeld",CHF 64'800.–,64800,54'700 km,54700,Diesel,1,Schaffhausen,['14'],47.741600036621094,8.709936141967773
1733471897-344,ADRIA Supreme I 810SL,"Bernstrasse 115, 3613 Steffisburg",CHF 114'900.–,114900,28'100 km,28100,Diesel,1,Schaffhausen,['14'],47.741600036621094,8.709936141967773
1733471903-345,DETHLEFFS Trend 90 T7057 EB,"Hauptstrasse 70, 8546 Islikon",CHF 65'970.–,65970,13'500 km,13500,Diesel,1,Schaffhausen,['14'],47.741600036621094,8.709936141967773
1733471909-346,"CHAUSSON TWIST V 594 START 2,3 DIESEL FIAT DUCATO MULTIJET 130","Zollstrasse 33, 8240 Thayngen(SH)",CHF 39'997.–,39997,61'772 km,61772,Diesel,1,Schaffhausen,['14'],47.741600036621094,8.709936141967773
1733471913-347,"KARMANN DEXTER 555 2,3 DIESEL HOCHDACH H3 FIAT DUCATO MAXI PROFESSIOAL MJ 130","Zollstrasse 33, 8240 Thayngen(SH)",CHF 59'997.–,59997,32'137 km,32137,Diesel,1,Schaffhausen,['14'],47.741600036621094,8.709936141967773
1733471917-348,"LAIKA Fiat Laika Ecovip 309 2.3, 131 PS","Riedgrabenstrasse 3, 8153 Rümlang",CHF 47'750.–,47750,19'700 km,19700,Diesel,1,Schaffhausen,['14'],47.741600036621094,8.709936141967773
1733471920-349,MERCEDES-BENZ Viano Marco Polo 3.5 L Aut.,"Rue Pré-de-la-Fontaine 8A. Bâtiment C., 1242 Satigny",CHF 44'900.–,44900,89'000 km,89000,Benzin,0,Schaffhausen,['14'],47.741600036621094,8.709936141967773
1733471925-350,"KARMANN DEXTER GO 600 2,3 DIESEL FIAT DUCATO PROFESSIONAL MJ2 130","Zollstrasse 33, 8240 Thayngen(SH)",CHF 48'997.–,48997,32'253 km,32253,Diesel,1,Schaffhausen,['14'],47.741600036621094,8.709936141967773
1733471930-351,"WEINSBERG CARATOUR 600 ME 2,3 DIESEL 9G-AUTOMAT FIAT DUCATO MJ 140","Zollstrasse 33, 8240 Thayngen(SH)",CHF 64'997.–,64997,47'099 km,47099,Diesel,1,Schaffhausen,['14'],47.741600036621094,8.709936141967773
1733471938-352,FIAT 2.8 JTD - Super Ausstattung,"Lättichstrasse 6, 6340 Baar",CHF 23'997.–,23997,59'000 km,59000,Diesel,1,Schaffhausen,['14'],47.741600036621094,8.709936141967773
1733471941-353,KNAUS Sky Wave 650 MEG mit Einzelbett & Hubbett,"Johann-Renfer-Strasse 3, 2504 Biel/Bienne",CHF 49'990.–,49990,68'999 km,68999,Diesel,1,Schaffhausen,['14'],47.741600036621094,8.709936141967773
1733471951-355,VW T6 California 2.0 Bi-TDI Ocean GREY 4Motion,"Eichäckerstrasse 1, 8500 Frauenfeld",CHF 54'900.–,54900,109'800 km,109800,Diesel,1,Schaffhausen,['14'],47.741600036621094,8.709936141967773
1733471954-356,FRANKIA YUCON 6.0,"Kirchbergstrasse 61, 3421 Lyssach",CHF 99'900.–,99900,12'266 km,12266,Diesel,1,Schaffhausen,['14'],47.741600036621094,8.709936141967773
1733471958-357,"FORD TRANSIT CUSTOM NUGGET WESTFALIA AUFSTELLDACH 2,2 TDCI DIESEL","Zollstrasse 33, 8240 Thayngen(SH)",CHF 39'997.–,39997,79'005 km,79005,Diesel,1,Schaffhausen,['14'],47.741600036621094,8.709936141967773
1733471961-358,HYMER SIERRA NEVADA 2.3 DIESEL HUBDACH FIAT DUCATO MULTIJET 150,"Zollstrasse 33, 8240 Thayngen(SH)",CHF 51'797.–,51797,43'026 km,43026,Diesel,1,Schaffhausen,['14'],47.741600036621094,8.709936141967773
1733471965-359,"SUNLIGHT CAPRON T 64 2,3 DIESEL FIAT DUCATO MULTIJET 130","Zollstrasse 33, 8240 Thayngen(SH)",CHF 39'997.–,39997,61'140 km,61140,Diesel,1,Schaffhausen,['14'],47.741600036621094,8.709936141967773
1733471970-360,"MCLOUIS MC 4 22 GOLD 2,3 DIESEL FIAT DUCATO MULTIJET 130","Zollstrasse 33, 8240 Thayngen(SH)",CHF 47'997.–,47997,32'281 km,32281,Diesel,1,Schaffhausen,['14'],47.741600036621094,8.709936141967773
1733471975-361,"ADRIA SUN LIVING C FLEXO SP 2,3 DIESEL FIAT DUCATO MULTIJET 130","Zollstrasse 33, 8240 Thayngen(SH)",CHF 40'997.–,40997,59'985 km,59985,Diesel,1,Schaffhausen,['14'],47.741600036621094,8.709936141967773
1733471984-362,"KARMANN DAVIS V 590 2,3 DIESEL FIAT DUCATO MULTIJET 130","Zollstrasse 33, 8240 Thayngen(SH)",CHF 47'997.–,47997,42'441 km,42441,Diesel,1,Schaffhausen,['14'],47.741600036621094,8.709936141967773
1733471986-363,"SUNLIGHT CAPRON I 68 2,3 DIESEL FIAT DUCATO MULTIJET 130","Zollstrasse 33, 8240 Thayngen(SH)",CHF 59'997.–,59997,26'128 km,26128,Diesel,1,Schaffhausen,['14'],47.741600036621094,8.709936141967773
1733471989-364,"PILOTE V 630 J 2,3 DIESEL FIAT DUCATO MULTIJET 130","Zollstrasse 33, 8240 Thayngen(SH)",CHF 39'997.–,39997,47'332 km,47332,Diesel,1,Ticino,['21'],46.375465393066406,8.919133186340332
1733471992-365,"PILOTE P 706 ESSENTIEL 2,3 DIESEL FIAT DUCATO MULTIJET 130","Zollstrasse 33, 8240 Thayngen(SH)",CHF 49'997.–,49997,52'392 km,52392,Diesel,1,Schaffhausen,['14'],47.741600036621094,8.709936141967773
1733471996-366,"SUNLIGHT CAPRON I 68 ACTIVE 2,3 DIESEL AUTOMAT FIAT DUCATO MULTIJET 150","Zollstrasse 33, 8240 Thayngen(SH)",CHF 57'597.–,57597,56'321 km,56321,Diesel,1,Schaffhausen,['14'],47.741600036621094,8.709936141967773
1733471999-367,"KNAUS SKY TRAVELLER FAMILY 600 DKG 2,3 DIESEL AUTOMAT FIAT DUCATO MULTIJET 150","Zollstrasse 33, 8240 Thayngen(SH)",CHF 47'997.–,47997,49'985 km,49985,Diesel,1,Schaffhausen,['14'],47.741600036621094,8.709936141967773
1733472001-368,"KNAUS BOX STAR 2,3 DIESEL HOCHDACH H3 FIAT DUCATO MULTIJET 150","Zollstrasse 33, 8240 Thayngen(SH)",CHF 59'897.–,59897,33'487 km,33487,Diesel,1,Schaffhausen,['14'],47.741600036621094,8.709936141967773
1733472005-369,"PILOTE P 650 ESSENTIEL 2,3 DIESEL FIAT DUCATO MULTIJET 130","Zollstrasse 33, 8240 Thayngen(SH)",CHF 49'697.–,49697,54'550 km,54550,Diesel,1,Schaffhausen,['14'],47.741600036621094,8.709936141967773
1733472009-370,"PÖSSL VARIO 499 2,2 HDI DIESEL HOCHDACH H3 CITROEN JUMPER","Zollstrasse 33, 8240 Thayngen(SH)",CHF 49'997.–,49997,22'981 km,22981,Diesel,1,Schaffhausen,['14'],47.741600036621094,8.709936141967773
1733472023-372,"MALIBU CARTHAGO VAN 600 2,3 DIESEL FIAT DUCATO MULTIJET 150","Zollstrasse 33, 8240 Thayngen(SH)",CHF 49'997.–,49997,32'648 km,32648,Diesel,1,Schaffhausen,['14'],47.741600036621094,8.709936141967773
1733472026-373,"PÖSSL ROADCAR R 600 2,3 DIESEL FIAT DUCATO MULTIJET PROFESSIONAL 130","Zollstrasse 33, 8240 Thayngen(SH)",CHF 40'997.–,40997,66'055 km,66055,Diesel,1,Schaffhausen,['14'],47.741600036621094,8.709936141967773
1733472029-374,"SUNLIGHT CAPRON 600 2,3 DIESEL FIAT DUCATO MULTIJET 150","Zollstrasse 33, 8240 Thayngen(SH)",CHF 47'997.–,47997,46'314 km,46314,Diesel,1,Schaffhausen,['14'],47.741600036621094,8.709936141967773
1733472032-375,"ADRIA MATRIX M 670 SL 50 JAHRE EDITION 2,3 DIESEL FIAT DUCATO MULTIJET 150","Zollstrasse 33, 8240 Thayngen(SH)",CHF 59'997.–,59997,11'702 km,11702,Diesel,1,Schaffhausen,['14'],47.741600036621094,8.709936141967773
1733472038-376,"PÖSSL GLOBECAR CAMPSCOUT REVOLUTION 2,3 DIESEL HOCHDACH H3 FIAT DUCATO MAXI PROFESSIONAL MULTIJET 150","Zollstrasse 33, 8240 Thayngen(SH)",CHF 55'997.–,55997,39'113 km,39113,Diesel,1,Schaffhausen,['14'],47.741600036621094,8.709936141967773
1733472041-377,"CARADO A 461 2,3 DIESEL FIAT DUCATO MULTIJET 140","Zollstrasse 33, 8240 Thayngen(SH)",CHF 55'197.–,55197,27'537 km,27537,Diesel,1,Schaffhausen,['14'],47.741600036621094,8.709936141967773
1733472044-378,"LAIKA ECOVIP 609 2,3 DIESEL FIAT DUCATO MULTIJET 150","Zollstrasse 33, 8240 Thayngen(SH)",CHF 54'997.–,54997,28'177 km,28177,Diesel,1,Schaffhausen,['14'],47.741600036621094,8.709936141967773
1733472047-379,ROLLER TEAM Pegaso MYTHOS 285,"Via Bellinzona 7, 6743 Bodio",CHF 73'900.–,73900,38'900 km,38900,Diesel,1,Schaffhausen,['14'],47.741600036621094,8.709936141967773
1733472049-380,"CHAUSSON TWIST V 594 START LIMITED EDITION 2,3 DIESEL FIAT DUCATO MULTIJET 2 130","Zollstrasse 33, 8240 Thayngen(SH)",CHF 44'997.–,44997,43'749 km,43749,Diesel,1,Schaffhausen,['14'],47.741600036621094,8.709936141967773
1733472052-381,"CI CARAVANSINTERNATIONAL MAGIS 85 INTEGRAL 2,3 DIESEL FIAT DUCATO MULTIJET 130","Zollstrasse 33, 8240 Thayngen(SH)",CHF 56'997.–,56997,27'705 km,27705,Diesel,1,Fribourg,['10'],46.82259750366211,7.301876544952393
1733472054-382,"CARADO A 461 2,3 DIESEL FIAT DUCATO MULTIJET 130","Zollstrasse 33, 8240 Thayngen(SH)",CHF 47'997.–,47997,43'126 km,43126,Diesel,1,Ticino,['21'],45.997154235839844,8.911989212036133
1733472057-383,"PÖSSL R 640 2,3 DIESEL FIAT DUCATO MAXI PROFESSIONAL MULTIJET 160","Zollstrasse 33, 8240 Thayngen(SH)",CHF 56'997.–,56997,29'839 km,29839,Diesel,1,Schaffhausen,['14'],47.741600036621094,8.709936141967773
1733472060-384,"RAPIDO 8096 DF PREMIUM EDITION 2,3 DIESEL FIAT DUCATO MULTIJET 150","Zollstrasse 33, 8240 Thayngen(SH)",CHF 67'997.–,67997,30'531 km,30531,Diesel,1,Schaffhausen,['14'],47.741600036621094,8.709936141967773
1733472063-385,"ROLLER TEAM KRONOS 267 TL 2,0 TDCI DIESEL FORD","Zollstrasse 33, 8240 Thayngen(SH)",CHF 57'597.–,57597,24'094 km,24094,Diesel,1,Schaffhausen,['14'],47.741600036621094,8.709936141967773
1733472068-386,SUNLIGHT T67 (Citroen Jumper 140PS),"Industriestrasse 14, 8355 Aadorf",CHF 61'950.–,61950,20'500 km,20500,Diesel,1,Schaffhausen,['14'],47.741600036621094,8.709936141967773
1733472073-387,"MALIBU CARTHAGO VAN V 600 DB 2,3 DIESEL FIAT DUCATO MULTIJET 130","Zollstrasse 33, 8240 Thayngen(SH)",CHF 54'997.–,54997,15'983 km,15983,Diesel,1,Schaffhausen,['14'],47.741600036621094,8.709936141967773
1733472076-388,"KNAUS BOX STAR 630 FREEWAY 2,3 DIESEL 9G-AUTOMAT HOCHDACH H3 FIAT DUCATO MULTIJET 160","Zollstrasse 33, 8240 Thayngen(SH)",CHF 66'996.–,66996,29'233 km,29233,Diesel,1,Schaffhausen,['14'],47.741600036621094,8.709936141967773
1733472078-389,"CARADO CAPRON A 464 2,3 D FIAT DUCATO MULTIJET 140","Zollstrasse 33, 8240 Thayngen(SH)",CHF 57'597.–,57597,18'286 km,18286,Diesel,1,Schaffhausen,['14'],47.741600036621094,8.709936141967773
1733472083-391,"HYMER YOSEMITE 2,3 DIESEL HUBDACH FIAT DUCATO MULTIJET 130","Zollstrasse 33, 8240 Thayngen(SH)",CHF 62'997.–,62997,53'988 km,53988,Diesel,1,Schaffhausen,['14'],47.741600036621094,8.709936141967773
1733472091-392,"BÜRSTNER LYSEO TIME IT 727 G HARMONY LINE 2,0 BLUEHDI CITROEN JUMPER","Zollstrasse 33, 8240 Thayngen(SH)",CHF 62'997.–,62997,19'985 km,19985,Diesel,1,Schaffhausen,['14'],47.741600036621094,8.709936141967773
1733472094-393,"KNAUS WEINSBERG CARABUS 2,3 DIESEL AUTOMAT HOCHDACH H3 FIAT DUCATO MULTIJET 130","Zollstrasse 33, 8240 Thayngen(SH)",CHF 63'997.–,63997,16'694 km,16694,Diesel,1,Schaffhausen,['14'],47.741600036621094,8.709936141967773
1733472102-394,"WEINSBERG KNAUS CARABUS 2,3 DIESEL AUTOMAT HOCHDACH H3 FIAT DUCATO MULTIJET 130","Zollstrasse 33, 8240 Thayngen(SH)",CHF 63'997.–,63997,16'694 km,16694,Diesel,1,Schaffhausen,['14'],47.741600036621094,8.709936141967773
1733472110-396,VW Cali. TDI Oce. Ed. Lib. A,"Spisi 9, 1714 Heitenried",CHF 67'000.–,67000,10'600 km,10600,Diesel,1,Schaffhausen,['14'],47.741600036621094,8.709936141967773
1733472113-397,LAIKA ECOVIP 690,"via alla Foce n. 5, 6933 Muzzano",CHF 54'900.–,54900,62'500 km,62500,Diesel,1,Schaffhausen,['14'],47.741600036621094,8.709936141967773
1733472119-398,"ROLLER TEAM LIVINGSTONE 2 2,3 DIESEL 9G-AUTOMAT FIAT DUCATO MJ 140","Zollstrasse 33, 8240 Thayngen(SH)",CHF 61'397.–,61397,25'869 km,25869,Diesel,1,Schaffhausen,['14'],47.741600036621094,8.709936141967773
1733472124-399,"LAIKA ECOVIP 309 S 2,3 DIESEL FIAT DUCATO MJ2 150","Zollstrasse 33, 8240 Thayngen(SH)",CHF 54'697.–,54697,49'985 km,49985,Diesel,1,Schaffhausen,['14'],47.741600036621094,8.709936141967773
1733472134-400,"ETRUSCO A 6600 BB 2,3 DIESEL FIAT DUCATO MJ 140","Zollstrasse 33, 8240 Thayngen(SH)",CHF 57'597.–,57597,35'081 km,35081,Diesel,1,Schaffhausen,['14'],47.741600036621094,8.709936141967773
1733472141-401,"ETRUSCO V 6600 SB 2,3 DIESEL 9G-AUTOMAT FIAT DUCATO MJ 140","Zollstrasse 33, 8240 Thayngen(SH)",CHF 65'997.–,65997,14'589 km,14589,Diesel,1,Aargau,['19'],47.40693283081055,8.31423568725586
1733472147-402,"PILOTE GALAXY G 650 ESSENTIEL 2,3 DIESEL FIAT DUCATO MJ 150","Zollstrasse 33, 8240 Thayngen(SH)",CHF 54'997.–,54997,57'383 km,57383,Diesel,1,Schaffhausen,['14'],47.741600036621094,8.709936141967773
1733472153-403,"ROLLER TEAM AUTO ROLLER KRONOS 264 TL 2,0 TDCI FORD","Zollstrasse 33, 8240 Thayngen(SH)",CHF 49'997.–,49997,57'859 km,57859,Diesel,1,Schaffhausen,['14'],47.741600036621094,8.709936141967773
1733472159-404,"CARADO I 447 EMOTION 2,3 DIESEL 9G-AUTOMAT FIAT DUCATO MJ 180","Zollstrasse 33, 8240 Thayngen(SH)",CHF 69'997.–,69997,19'985 km,19985,Diesel,1,Schaffhausen,['14'],47.741600036621094,8.709936141967773
1733472164-405,BÜRSTNER NEXXO T620 G (Citroen Jump.),"Industriestrasse 14, 8355 Aadorf",CHF 62'950.–,62950,14'500 km,14500,Diesel,1,Schaffhausen,['14'],47.741600036621094,8.709936141967773
1733472169-406,"DETHLEFFS JUST 7052 EB 2,2 HDI DIESEL CITROEN JUMPER","Zollstrasse 33, 8240 Thayngen(SH)",CHF 63'997.–,63997,14'231 km,14231,Diesel,1,Schaffhausen,['14'],47.741600036621094,8.709936141967773
1733472175-407,"BENIMAR MILEO 263 2,3 DIESEL FIAT DUCATO MJ 160","Zollstrasse 33, 8240 Thayngen(SH)",CHF 65'996.–,65996,33'854 km,33854,Diesel,1,Schaffhausen,['14'],47.741600036621094,8.709936141967773
1733472180-408,"CHAUSSON TWIST V 594 START SPEZIAL EDITION 2,3  DIESEL FIAT DUCATO MJ 130","Zollstrasse 33, 8240 Thayngen(SH)",CHF 49'997.–,49997,48'856 km,48856,Diesel,1,Schaffhausen,['14'],47.741600036621094,8.709936141967773
1733472185-409,"PÖSSL GLOBECAR GLOBESTAR 600 L REVOLUTION 2,3 DIESEL AUTOMAT HOCHDACH H3 FIAT DUCATO PROFESSIONAL MJ 150","Zollstrasse 33, 8240 Thayngen(SH)",CHF 56'997.–,56997,42'124 km,42124,Diesel,1,Schaffhausen,['14'],47.741600036621094,8.709936141967773
1733472191-410,MERCEDES-BENZ Marco Polo - V 300 d L 4M - Horizon - 4x4 - Aufstelldach,"Sternmatt 6, 6010 Kriens / Luzern",CHF 69'900.–,69900,29'600 km,29600,Diesel,1,Schaffhausen,['14'],47.741600036621094,8.709936141967773
1733472198-411,"PILOTE V 630 2,3 DIESEL FIAT DUCATO PROFESSIONAL MJ 130","Zollstrasse 33, 8240 Thayngen(SH)",CHF 47'997.–,47997,39'985 km,39985,Diesel,1,Schaffhausen,['14'],47.741600036621094,8.709936141967773
1733472212-412,"KARMANN DAVIS 590 2,3 DIESEL 9G-AUTOMAT FIAT DUCATO MJ 160","Zollstrasse 33, 8240 Thayngen(SH)",CHF 59'997.–,59997,19'985 km,19985,Diesel,1,Basel-Landschaft,['13'],47.41001510620117,7.49330997467041
1733472218-413,"DETHLEFFS TREND T 6767 2,3 DIESEL FIAT DUCATO MJ 150","Zollstrasse 33, 8240 Thayngen(SH)",CHF 46'997.–,46997,89'985 km,89985,Diesel,1,Schaffhausen,['14'],47.741600036621094,8.709936141967773
1733472224-414,"FORD TRANSIT CUSTOM NUGGET WESTFALIA HOCHDACH H3 2,2 TDCI DIESEL","Zollstrasse 33, 8240 Thayngen(SH)",CHF 46'997.–,46997,42'615 km,42615,Diesel,1,Schaffhausen,['14'],47.741600036621094,8.709936141967773
1733472232-415,"ETRUSCO I 7400 SB COMPLETE SELECTION 2,3 DIESEL 9G-AUTOMAT FIAT DUCATO MJ 160","Zollstrasse 33, 8240 Thayngen(SH)",CHF 81'597.–,81597,14'568 km,14568,Diesel,1,Schaffhausen,['14'],47.741600036621094,8.709936141967773
1733472239-416,VW T5 California 2.0 Bi-TDI Beach Edition,"Werkstrasse 1, 5608 Stetten",CHF 25'000.–,25000,199'800 km,199800,Diesel,1,Schaffhausen,['14'],47.741600036621094,8.709936141967773
1733472246-417,"PÖSSL V 640 2,3 DIESEL FIAT DUCATO PROFESSIONAL MJ 150","Zollstrasse 33, 8240 Thayngen(SH)",CHF 43'997.–,43997,54'622 km,54622,Diesel,1,Schaffhausen,['14'],47.741600036621094,8.709936141967773
1733472252-418,"ETRUSCO T 6900 QB 2,0 HDI DIESEL CITROEN JUMPER","Zollstrasse 33, 8240 Thayngen(SH)",CHF 59'997.–,59997,25'019 km,25019,Diesel,1,Schaffhausen,['14'],47.741600036621094,8.709936141967773
1733472258-419,"CHAUSSON 648 TITANIUM VIP 2,3 DIESEL 9G-AUTOMAT FIAT DUCATO MJ 140","Zollstrasse 33, 8240 Thayngen(SH)",CHF 64'997.–,64997,29'985 km,29985,Diesel,1,Schaffhausen,['14'],47.741600036621094,8.709936141967773
1733472264-420,"LAIKA X 595 R 2,3 DIESEL FIAT DUCATO MJ 130","Zollstrasse 33, 8240 Thayngen(SH)",CHF 36'797.–,36797,79'985 km,79985,Diesel,1,Schaffhausen,['14'],47.741600036621094,8.709936141967773
1733472271-421,"ADRIA SUN LIVING V 65 SL 2,3 DIESEL FIAT DUCATO MJ","Zollstrasse 33, 8240 Thayngen(SH)",CHF 55'997.–,55997,42'601 km,42601,Diesel,1,Schaffhausen,['14'],47.741600036621094,8.709936141967773
1733472280-422,"KNAUS BOX STAR 600 DQ SOLUTION 4 2,3 DIESEL HOCHDACH H3 FIAT DUCATO MJ 150","Zollstrasse 33, 8240 Thayngen(SH)",CHF 56'997.–,56997,38'286 km,38286,Diesel,1,Schaffhausen,['14'],47.741600036621094,8.709936141967773
1733472287-423,"ROLLER TEAM KRONOS 291 P 2,0 TDCI DIESEL FORD","Zollstrasse 33, 8240 Thayngen(SH)",CHF 52'997.–,52997,19'648 km,19648,Diesel,1,Schaffhausen,['14'],47.741600036621094,8.709936141967773
1733472298-424,"CLEVER VANS TOUR 540 2,2 HDI DIESEL CITROEN JUMPER","Zollstrasse 33, 8240 Thayngen(SH)",CHF 45'997.–,45997,35'586 km,35586,Diesel,1,Schaffhausen,['14'],47.741600036621094,8.709936141967773
1733472309-425,"FORD TRANSIT CUSTOM NUGGET WESTFALIA AUFSTELLDACH 2,0 TDCI DIESEL AUTOMAT","Zollstrasse 33, 8240 Thayngen(SH)",CHF 54'697.–,54697,24'401 km,24401,Diesel,1,Schaffhausen,['14'],47.741600036621094,8.709936141967773
1733472319-426,"WEINSBERG CARABUS 631 ME EDITION FIRE 2,3 DIESEL FIAT DUCATO MULTIJET 130","Zollstrasse 33, 8240 Thayngen(SH)",CHF 48'997.–,48997,49'985 km,49985,Diesel,1,Schaffhausen,['14'],47.741600036621094,8.709936141967773
1733472322-427,VW T6 California 2.0 TDI 199 Beach DSG 4m 7 Pl.,"Delsbergerstrasse 181, 4242 Laufen",CHF 62'900.–,62900,26'000 km,26000,Diesel,1,Schaffhausen,['14'],47.741600036621094,8.709936141967773
1733472326-428,"PÖSSL RAODCAR R 540 2,3 DIESEL FIAT DUCATO PROFESSIONAL MJ2 130","Zollstrasse 33, 8240 Thayngen(SH)",CHF 47'997.–,47997,28'689 km,28689,Diesel,1,Schaffhausen,['14'],47.741600036621094,8.709936141967773
1733472330-429,"ETRUSCO CV 600 DB COMPLETE SELECTION 2,3 DIESEL FIAT DUCATO MULTIJET 140","Zollstrasse 33, 8240 Thayngen(SH)",CHF 55'997.–,55997,29'985 km,29985,Diesel,1,Schaffhausen,['14'],47.741600036621094,8.709936141967773
1733472333-430,"VW T6.1 CALIFORNIA 2,0 TDI DSG 4X4 OCEAN EDITION LIBERTY","Zollstrasse 33, 8240 Thayngen(SH)",CHF 65'997.–,65997,54'977 km,54977,Diesel,1,Schaffhausen,['14'],47.741600036621094,8.709936141967773
1733472349-431,"VW T6.1 CALIFORNIA 2,0 TDI DSG 4X4 OCEAN EDITION LIBERTY","Zollstrasse 33, 8240 Thayngen(SH)",CHF 65'997.–,65997,45'981 km,45981,Diesel,1,Schaffhausen,['14'],47.741600036621094,8.709936141967773
1733472369-432,"FORD TRANSIT CUSTOM NUGGET WESTFALIA AUFSTELLDACH 2,0 TDCI DIESEL AUTOMAT","Zollstrasse 33, 8240 Thayngen(SH)",CHF 51'997.–,51997,43'867 km,43867,Diesel,1,Schaffhausen,['14'],47.741600036621094,8.709936141967773
1733472382-434,"BÜRSTNER NEXXO TIME T 569 EDITION 30 YEARS 2,0 HDI CITROEN JUMPER","Zollstrasse 33, 8240 Thayngen(SH)",CHF 52'997.–,52997,39'663 km,39663,Diesel,1,Zürich,['01'],47.36789321899414,8.81820297241211
1733472386-435,"ADRIA MATRIX AXESS 670 SL GT EDITION 2,3 DIESEL AUTOMAT FIAT DUCATO MJ 150","Zollstrasse 33, 8240 Thayngen(SH)",CHF 68'997.–,68997,48'698 km,48698,Diesel,1,Vaud,['22'],46.83207321166992,6.935480117797852
1733472392-436,"HOBBY OPTIMA PREMIUM T 65 GQ 2,3 DIESEL AUTOMAT FIAT DUCATO MJ 150","Zollstrasse 33, 8240 Thayngen(SH)",CHF 64'997.–,64997,28'515 km,28515,Diesel,1,St. Gallen,['17'],47.467018127441406,9.58243179321289
1733472398-437,"RIMOR EVO 95 PLUS 2,0 TDCI DIESEL AUTOMAT FORD","Zollstrasse 33, 8240 Thayngen(SH)",CHF 59'997.–,59997,31'555 km,31555,Diesel,1,Genève,['25'],46.193580627441406,6.129368782043457
1733472404-438,"HYMER EXIS-I EX 474 2,3 DIESEL 9G-AUTOMAT FIAT DUCATO MJ 140","Zollstrasse 33, 8240 Thayngen(SH)",CHF 79'996.–,79996,23'640 km,23640,Diesel,1,Genève,['25'],46.193580627441406,6.129368782043457
1733472410-439,"WEINSBERG CARASUITE 700 ME 2,3 DIESEL FIAT DUCATO MULTIJET 140","Zollstrasse 33, 8240 Thayngen(SH)",CHF 64'997.–,64997,23'641 km,23641,Diesel,1,Bern,['02'],46.774803161621094,7.615665435791016
1733472416-440,"CHAUSSON KOROS 720 2,0 TDCI DIESEL FORD","Zollstrasse 33, 8240 Thayngen(SH)",CHF 54'997.–,54997,49'985 km,49985,Diesel,1,Bern,['02'],47.07102584838867,7.5950236320495605
1733472423-441,"CARADO CAPRON V 132 2,3 DIESEL FIAT DUCATO MJ","Zollstrasse 33, 8240 Thayngen(SH)",CHF 46'997.–,46997,37'661 km,37661,Diesel,1,Aargau,['19'],47.48258972167969,8.278800010681152
1733472435-443,"CHAUSSON 747 GA WELCOME PREMIUM 2,3 DIESEL FIAT DUCATO MJ 130","Zollstrasse 33, 8240 Thayngen(SH)",CHF 59'997.–,59997,26'652 km,26652,Diesel,1,Zürich,['01'],47.23871994018555,8.749458312988281
1733472461-445,"RAPIDO CI CARAVANSINTERNATIONAL MAGIS 85 INTEGRAL 2,3 DIESEL FIAT DUCATO MULTIJET 130","Zollstrasse 33, 8240 Thayngen(SH)",CHF 56'997.–,56997,27'705 km,27705,Diesel,1,Luzern,['03'],46.924835205078125,8.018625259399414
1733472465-446,"HOBBY OPTIMA T 65 FL ONTOUR 2,2 HDI DIESEL CITROEN JUMPER","Zollstrasse 33, 8240 Thayngen(SH)",CHF 62'997.–,62997,12'847 km,12847,Diesel,1,Schaffhausen,['14'],47.741600036621094,8.709936141967773
1733472469-447,"HYMER GRAND CANYON 600 2,3 DIESEL HUBDACH FIAT DUCATO MJ 150","Zollstrasse 33, 8240 Thayngen(SH)",CHF 53'997.–,53997,39'890 km,39890,Diesel,1,Aargau,['19'],47.29646301269531,7.931781768798828
1733472475-448,FIAT Ducato,"Zollstrasse 10 & Waldegg 379, 3436 Zollbrück",CHF 48'900.–,48900,38'000 km,38000,Diesel,1,Valais,['23'],46.18864440917969,7.297874450683594
1733472480-449,VW Typ 2,"Pfäffikerstrasse 31a, 8335 Hittnau",CHF 19'900.–,19900,200'000 km,200000,Benzin,0,Schaffhausen,['14'],47.686065673828125,8.622149467468262
1733472485-450,VW T6.1 California 2.0 TDI Ocean Liberty,"Route de Grandcour 71, 1530 Payerne",CHF 61'900.–,61900,35'500 km,35500,Diesel,1,Nidwalden,['07'],46.934852600097656,8.393327713012695
1733472488-451,VW 2.0 TDI 4MOTION MULTIVAN CAMPER,"Thalerstrasse 46a, 9424 Rheineck",CHF 25'900.–,25900,186'000 km,186000,Diesel,1,Bern,['02'],46.76797103881836,7.352298259735107
1733472504-453,VW T5 California 2.0 TDI Comfortline Travel,"rue Eugène-Marziano 18, 1227 Les Acacias",CHF 50'500.–,50500,51'000 km,51000,Diesel,1,Bern,['02'],47.07444381713867,7.581071853637695
1733472510-454,DETHLEFFS XXLA 9000,"Bernstrasse 115, 3613 Steffisburg",CHF 169'500.–,169500,13'500 km,13500,Diesel,1,Aargau,['19'],47.414920806884766,8.382509231567383
1733472513-455,MERCEDES-BENZ Marco Polo 220 d A,"Industriestrasse 6, 3421 Lyssach",CHF 62'900.–,62900,16'900 km,16900,Diesel,1,Aargau,['19'],47.37942886352539,8.14233112335205
1733472516-456,VW T6.1 California 2.0 TDI Ocean Edition Liberty,"Bruggerstrasse 194, 5400 Baden",CHF 59'500.–,59500,29'008 km,29008,Diesel,1,Zürich,['01'],47.272743225097656,8.43922233581543
1733472519-457,VW 2.4D Westfalia mit Hochdach,"Johann-Renfer-Strasse 3, 2504 Biel/Bienne",CHF 16'690.–,16690,244'990 km,244990,Diesel,1,Solothurn,['11'],47.24129867553711,7.598618030548096
1733472524-458,VW T6 California 2.0 Bi-TDI Beach Liberty 4Motion,"Laubisrütistrasse 77, 8713 Uerikon",CHF 47'900.–,47900,109'000 km,109000,Diesel,1,Luzern,['03'],47.04911422729492,8.27134895324707
1733472528-459,LAIKA Iveco Laika Ecovip,"Hauptstrasse 70 A, 9105 Schönengrund",CHF 27'500.–,27500,138'000 km,138000,Diesel,1,Uri,['04'],46.855812072753906,8.639747619628906
1733472533-460,TOYOTA 400 Hdt Long 4.2D Buschtaxi,"Staufmoos, 6170 Schüpfheim",CHF 79'800.–,79800,61'000 km,61000,Diesel,1,Luzern,['03'],47.04475021362305,8.191388130187988
1733472536-461,"KNAUS SKY TI 700 MEG PLATINUM SELECTION 2,3 DIESEL 9G-AUTOMAT FIAT DUCATO MJ 160","Zollstrasse 33, 8240 Thayngen(SH)",CHF 67'997.–,67997,37'312 km,37312,Diesel,1,St. Gallen,['17'],47.41733932495117,9.236328125
1733472539-462,BRAVIA Swan 636 165 PS Swiss Ed.High Roof,"untere Brühlstrasse 48, 4800 Zofingen",CHF 74'900.–,74900,20'000 km,20000,Diesel,1,Solothurn,['11'],47.15408706665039,7.592122554779053
1733472546-464,VW T6.1 California 2.0 TDI Ocean 4Motion Anhängelast 2500Kg Seitenstoren und Elektrisches Hochdach  Neupreis 95840 CHF,"Zentralstrasse 121, 8212 Neuhausen am Rheinfall",CHF 66'900.–,66900,42'014 km,42014,Diesel,1,Zürich,['01'],47.41579055786133,8.562726974487305
1733472553-466,VW T6 California 2.0 Bi-TDI Ocean BLUE,"Kappelen 30B, 3156 Riffenmatt",CHF 55'800.–,55800,33'100 km,33100,Diesel,1,Vaud,['22'],46.344478607177734,6.943572521209717
1733472561-468,YUCON 6.0,"Kirchbergstrasse 61, 3421 Lyssach",CHF 99'900.–,99900,12'266 km,12266,Diesel,1,Luzern,['03'],47.05141830444336,8.273253440856934
1733472565-469,VW T6 California 2.0 TDI Ocean Liberty 4Motion,"Grubenstrasse 7, 8957 Spreitenbach",CHF 51'900.–,51900,61'500 km,61500,Diesel,1,Luzern,['03'],47.19865417480469,8.108717918395996
1733472569-470,FORD 100L,"Seetalstrasse 35, 5503 Schafisheim",CHF 10'900.–,10900,274'000 km,274000,Benzin,0,Luzern,['03'],47.040523529052734,8.134263038635254
1733472573-471,ITINEO 740 auf Fiat Ducato,"Obfelderstrasse 38, 8910 Affoltern am Albis",CHF 59'800.–,59800,17'598 km,17598,Diesel,1,Bern,['02'],47.070003509521484,7.3112287521362305
1733472586-472,MERCEDES-BENZ Sprinter 313 CDI 4x4 Automatik / Off-Road Autark Camper **Frisch ab MFK**,"Baselstrasse 25, 4534 Flumenthal",CHF 46'990.–,46990,63'109 km,63109,Diesel,1,Bern,['02'],47.07384490966797,7.588680267333984
1733472590-473,MERCEDES-BENZ Marco Polo 250 d  4M Automat,"Unterwilrain 16, 6014 Luzern",CHF 69'500.–,69500,32'000 km,32000,Diesel,1,Schaffhausen,['14'],47.741600036621094,8.709936141967773
1733472593-474,FIAT Carado A464 2.3 JTD,"Umfahrungsstrasse 9, 6467 Schattdorf",CHF 33'900.–,33900,44'900 km,44900,Diesel,1,Schaffhausen,['14'],47.741600036621094,8.709936141967773
1733472595-475,DETHLEFFS Advantage I 7051EB,"Eistrasse 1, 6102 Malters",CHF 47'000.–,47000,157'000 km,157000,Diesel,1,Zürich,['01'],47.49706268310547,8.864991188049316
1733472600-476,VW T5 California 2.0 TDI Comfortline Last Edition,"Wilerstrasse 71, 9200 Gossau SG",CHF 36'500.–,36500,148'500 km,148500,Diesel,1,Graubünden,['18'],47.00366973876953,9.525409698486328
1733472609-478,FORD Transit Autoroller,"Forchstrasse 148, 8132 Egg bei Zürich",CHF 29'900.–,29900,88'000 km,88000,Diesel,1,Thurgau,['20'],47.56706237792969,8.858413696289062
1733472612-479,MERCEDES-BENZ Marco Polo 300 d 4M A,"Hagenholzstrasse 111, 8050 Zürich",CHF 74'900.–,74900,35'500 km,35500,Diesel,1,Nidwalden,['07'],46.934852600097656,8.393327713012695
1733472615-480,MERCEDES-BENZ Marco Polo Activ 250 d 4M,"Grand-rue 4, 2606 Corgémont (Biel-Bienne/BE - 13 min)",CHF 45'999.–,45999,123'000 km,123000,Diesel,1,Genève,['25'],46.193580627441406,6.129368782043457
1733472618-481,FORD Challenger Trigano FD4,"Pré de l'Oie 3, 1853 Yvorne",CHF 65'500.–,65500,11'800 km,11800,Diesel,1,Bern,['02'],47.11769485473633,7.2922821044921875
1733472626-483,NISSAN NV400 LH2 Wohnmobil,"Luzernerstrasse 80, 6014 Luzern",CHF 39'999.–,39999,25'000 km,25000,Diesel,1,Thurgau,['20'],47.65929412841797,9.12209701538086
1733472633-485,CARTHAGO Chic S-Plus,"Mittler-Langnau 1, 6105 Schachen LU",CHF 199'000.–,199000,20'000 km,20000,Diesel,1,Glarus,['08'],47.049163818359375,9.064384460449219
1733472636-486,MERCEDES-BENZ Marco Polo 220 d Trend  4M Automat,"Bernstrasse 11, 3250 lyss",CHF 79'000.–,79000,16'000 km,16000,Diesel,1,Luzern,['03'],47.05141830444336,8.273253440856934
1733472640-487,VW T6.1 California 2.0 TDI Ocean Liberty,"Schachenstrasse 31, 3421 Lyssach",CHF 65'900.–,65900,12'000 km,12000,Diesel,1,Ticino,['21'],46.15753173828125,8.975666999816895
1733472644-488,"SUNLIGHT CLIFF CVE 640 ADVENTURE EDITION 2,3 DIESEL 9G-AUTOMAT FIAT DUCATO MJ 140","Zollstrasse 33, 8240 Thayngen(SH)",CHF 59'997.–,59997,36'784 km,36784,Diesel,1,Nidwalden,['07'],46.904449462890625,8.393872261047363
1733472647-489,"CHALLENGER 347 GA GRAPHITE EDITION 2,0 TDCI DIESEL AUTOMAT FORD","Zollstrasse 33, 8240 Thayngen(SH)",CHF 56'997.–,56997,62'940 km,62940,Diesel,1,Nidwalden,['07'],46.904449462890625,8.393872261047363
1733472650-490,MERCEDES-BENZ Marco Polo 250 d Horizon,"Bahnhofstrasse 7, 8353 Elgg",CHF 51'900.–,51900,38'000 km,38000,Diesel,1,Bern,['02'],46.757205963134766,7.616790294647217
1733472660-491,VW T6.1 California 2.0 Bi-TDI Ocean Liberty 4Motion,"Untere Industrie 2, 7304 Maienfeld",CHF 63'200.–,63200,94'241 km,94241,Diesel,1,Luzern,['03'],47.06964874267578,8.319802284240723
1733472664-492,ADRIA Coral S680 SPL,"Rte de Porrentruy 86, 2800 Delémont",CHF 29'900.–,29900,108'000 km,108000,Diesel,1,Obwalden,['06'],46.942352294921875,8.272114753723145
1733472669-493,VW T6.1 California 2.0 TDI Ocean Edition 4Motion,"Eichäckerstrasse 1, 8500 Frauenfeld",CHF 76'800.–,76800,20'900 km,20900,Diesel,1,Basel-Landschaft,['13'],47.415218353271484,7.844275951385498
1733472672-494,VW T6 California 2.0 TDI Ocean Liberty 4Motion,"Aawasserstrasse 12, 6383 Dallenwil",CHF 51'900.–,51900,75'000 km,75000,Diesel,1,Nidwalden,['07'],46.934852600097656,8.393327713012695
1733472675-495,VW T6.1 California 2.0 TDI Ocean Liberty,"rue Eugène-Marziano 18, 1227 Les Acacias",CHF 52'900.–,52900,41'000 km,41000,Diesel,1,Solothurn,['11'],47.312950134277344,7.786300182342529
1733472681-496,MERCEDES-BENZ Marco Polo 250 d  4M Automat,"Alte Bernstrasse 34, 2558 Aegerten",CHF 87'900.–,87900,12'500 km,12500,Diesel,1,Aargau,['19'],47.152587890625,8.39490032196045
1733472684-497,VW T6 California 2.0 Bi-TDI Ocean * BULLI *,"Hauptstrasse 8, 9434 Au / Rheintal / SG",CHF 44'990.–,44990,119'840 km,119840,Diesel,1,Basel-Landschaft,['13'],47.45001220703125,7.881074905395508
1733472688-498,FIAT Fullback mit DUX Kabine,"Schützenstrasse 4, 8274 Tägerwilen",CHF 69'990.–,69990,121'500 km,121500,Diesel,1,Luzern,['03'],47.0927734375,8.318682670593262
1733472692-499,RENAULT Trafic Seabird 2.9 t L1 H1 2.5 dCi 146 DPF,"Route Principale 9, 2743 Eschert - Moutier",CHF 12'900.–,12900,301'000 km,301000,Diesel,1,St. Gallen,['17'],47.31846237182617,9.172804832458496
1733472696-500,RIMOR Rimor Seal 50,"Buchholz 44, 8750 Glarus",CHF 59'900.–,59900,13'000 km,13000,Diesel,1,Neuchâtel,['24'],47.096275329589844,6.81933069229126
1733472700-501,VW T6 California 2.0 Bi-TDI Ocean 4Motion,"Luzernerstrasse 80, 6014 Luzern",CHF 44'999.–,44999,131'000 km,131000,Diesel,1,Valais,['23'],46.26874542236328,6.959034442901611
1733472703-502,RIMOR Evo5,"Via Stazione 2, 6592 S.Antonino",CHF 56'900.–,56900,22'000 km,22000,Diesel,1,Aargau,['19'],47.152587890625,8.39490032196045
1733472707-503,VW T6.1 California 2.0 Bi-TDI Ocean Liberty 4Motion,"Alpenstrasse 1, 6386 Wolfenschiessen",CHF 64'800.–,64800,34'800 km,34800,Diesel,1,Solothurn,['11'],47.18511199951172,7.399871349334717
1733472711-504,VW T6.1 California 2.0 TDI Beach Liberty Spirit,"Alpenstrasse 1, 6386 Wolfenschiessen",CHF 52'800.–,52800,101'200 km,101200,Diesel,1,Schaffhausen,['14'],47.741600036621094,8.709936141967773
1733472714-505,PÖSSL Summit 640,"Florastrasse 4, 3600 Thun",CHF 54'900.–,54900,62'000 km,62000,Diesel,1,Schaffhausen,['14'],47.741600036621094,8.709936141967773
1733472717-506,VW Caddy Maxi 1.5 TSI California,"Luzernerstrasse 84, 6030 Ebikon",CHF 33'900.–,33900,66'345 km,66345,Benzin,0,Schaffhausen,['14'],47.741600036621094,8.709936141967773
1733472722-508,VW T6.1 California Ocean Lib 2.0 TDI DSG 150PS,"Weiermatt 1, 4446 Buckten",CHF 65'500.–,65500,12'027 km,12027,Diesel,1,Valais,['23'],46.2806282043457,6.924017906188965
1733472726-509,VW T6 California 2.0 TDI Beach 4Motion,"Aawasserstrasse 12, 6383 Dallenwil",CHF 43'900.–,43900,128'500 km,128500,Diesel,1,Aargau,['19'],47.514400482177734,8.01496410369873
1733472729-510,MERCEDES-BENZ Marco Polo 300 d 4M Automat,"Industriestrasse 23, 4623 Neuendorf",CHF 84'500.–,84500,17'500 km,17500,Diesel,1,Luzern,['03'],47.055057525634766,8.085668563842773
1733472735-511,VW GEOVAN L Induktion - Solar - Warmwasser - Dusche - Lithium - grosses Bett,"Schwettistrasse 1A, 6042 Dietwil",CHF 41'500.–,41500,68'500 km,68500,Diesel,1,St. Gallen,['17'],47.447872161865234,9.134964942932129
1733472740-512,VW T6 California 2.0 TDI DSG Beach,"Gässliacker 13, 4492 Tecknau",CHF 41'800.–,41800,99'800 km,99800,Diesel,1,Solothurn,['11'],47.33076095581055,7.837788105010986
1733472744-513,VW T5 California 2.0 TDI Comfortline 4Motion,"Buholzstrasse 40, 6032 Emmen",CHF 31'000.–,31000,152'966 km,152966,Diesel,1,Solothurn,['11'],47.33076095581055,7.837788105010986
1733472747-514,STEYR 12 S 23 4x4,"Dorf 10, 9127 St. Peterzell",CHF 134'800.–,134800,44'000 km,44000,Diesel,1,Luzern,['03'],47.055057525634766,8.085668563842773
1733472753-516,VW T6 California 2.0 Bi-TDI Ocean Liberty 4Motion,"Avenue Léopold-Robert 117, 2300 La Chaux-de-Fonds",CHF 62'800.–,62800,52'000 km,52000,Diesel,1,Luzern,['03'],47.055057525634766,8.085668563842773
1733472760-518,VW GEOVAN M - Allrad - Bestzustand,"Schwettistrasse 1A, 6042 Dietwil",CHF 41'500.–,41500,81'500 km,81500,Diesel,1,Schaffhausen,['14'],47.741600036621094,8.709936141967773
1733472766-519,XGO 95G,"Archstrasse 36, 2540 Grenchen",CHF 54'555.–,54555,34'140 km,34140,Diesel,1,Schaffhausen,['14'],47.741600036621094,8.709936141967773
1733472769-520,"DETHLEFFS EDITION SILVER LINE T 7056 2,3 DIESEL FIAT DUCATO MJ 140","Zollstrasse 33, 8240 Thayngen(SH)",CHF 62'997.–,62997,28'018 km,28018,Diesel,1,Aargau,['19'],47.152587890625,8.39490032196045
1733472773-521,"ADRIA MATRIX 600 SL PLUS 2,3 DIESEL FIAT DUCATO MJ 160","Zollstrasse 33, 8240 Thayngen(SH)",CHF 69'997.–,69997,37'904 km,37904,Diesel,1,Thurgau,['20'],47.64430236816406,9.194437026977539
1733472783-522,"FORD TRANSIT CUSTOM NUGGET WESTFALIA HOCHDACH H3 2,2 TDCI DIESEL","Zollstrasse 33, 8240 Thayngen(SH)",CHF 49'997.–,49997,65'986 km,65986,Diesel,1,Basel-Landschaft,['13'],47.415218353271484,7.844275951385498
1733472790-523,RENAULT Trafic 2.9 t L1 H1 1.6 dCi 114 Camper,"Zürcherstrasse 34 und Messenriet 15, 8500 Frauenfeld",CHF 23'600.–,23600,122'200 km,122200,Diesel,1,Luzern,['03'],47.15180969238281,8.165165901184082
1733472796-524,MERCEDES-BENZ Viano 3.0 CDI Blue Eff. Marco Polo Edition A,"Ch. de la Millière 3a, 1893 Muraz (Collombey)",CHF 33'900.–,33900,159'000 km,159000,Diesel,1,Aargau,['19'],47.152587890625,8.39490032196045
1733472801-525,VW T6 California 3000 2.0 TDI 150 Beach Liberty,"Hauptstrasse 142, 5072 Oeschgen",CHF 43'900.–,43900,33'652 km,33652,Diesel,1,Schwyz,['05'],47.00950241088867,8.619601249694824
1733472807-526,OPEL Zafira Life M FLEX erhöhte Last 2.0 CDTI 177 CROSSCAMP,"Hackenrüti 10, 6110 Wolhusen",CHF 58'000.–,58000,29'900 km,29900,Diesel,1,Schaffhausen,['14'],47.741600036621094,8.709936141967773
1733472813-527,LAND ROVER Discovery 2.7TD V6,"Henauerstrasse 44, 9244 Niederuzwil",CHF 26'900.–,26900,125'000 km,125000,Diesel,1,Aargau,['19'],47.152587890625,8.39490032196045
1733472823-529,VW T6.1 California TDI Beach Liberty Spirit DSG7,"Solothurnerstrasse 25, 4614 Hägendorf",CHF 64'300.–,64300,11'200 km,11200,Diesel,1,Zürich,['01'],47.387718200683594,8.494241714477539
1733472829-530,OPEL Movano Flex 541 3.5t L2 H2 2.2 TD 165 Heavy CROSSCAMP,"Hackenrüti 10, 6110 Wolhusen",CHF 59'820.–,59820,18'000 km,18000,Diesel,1,Solothurn,['11'],47.35773849487305,7.984447479248047
1733472855-531,CROSSCAMP Opel Zafira Life M FLEX erhöhte Last 2.0 CDTI 177,"Hackenrüti 10, 6110 Wolhusen",CHF 58'000.–,58000,29'900 km,29900,Diesel,1,St. Gallen,['17'],47.227630615234375,8.866288185119629
1733472860-532,CROSSCAMP Opel Movano Flex 541 3.5t L2 H2 2.2 TD 165 Heavy,"Hackenrüti 10, 6110 Wolhusen",CHF 59'820.–,59820,18'000 km,18000,Diesel,1,Solothurn,['11'],47.35371780395508,7.931101322174072
1733472865-533,"MERCEDES-BENZ Sprinter VANPOWER Model: Infinity - Luxuriöses Wohnmobil für 2 Personen, Professioneller Ausbau alles NEU","Eichholzweg 18, 3123 Belp",CHF 83'900.–,83900,37'950 km,37950,Diesel,1,Basel-Landschaft,['13'],47.45001220703125,7.881074905395508
1733472872-535,"VW T5 CALIFORNIA 2,0 TDI DSG COMFORTLINE","Zollstrasse 33, 8240 Thayngen(SH)",CHF 43'997.–,43997,82'762 km,82762,Diesel,1,Thurgau,['20'],47.46270751953125,9.02379035949707
1733472879-536,VW GEOVAN M *NEUES MODEL*,"Schwettistrasse 1A, 6042 Dietwil",CHF 34'950.–,34950,87'560 km,87560,Diesel,1,Basel-Landschaft,['13'],47.547142028808594,7.5511474609375
1733472884-537,MERCEDES-BENZ Marco Polo 220 d Trend L,"Sonnenwiesenstrasse 17, 8280 Kreuzlingen",CHF 63'800.–,63800,28'000 km,28000,Diesel,1,Luzern,['03'],47.08992385864258,8.253633499145508
1733472889-538,VW Grand California 600 2.0 TDI 177PS,"Weiermatt 1, 4446 Buckten",CHF 53'900.–,53900,23'967 km,23967,Diesel,1,Aargau,['19'],47.26155090332031,7.946728229522705
1733472895-539,FIAT Knaus 3.0,"Seestrasse 30, 6205 Eich",CHF 37'990.–,37990,77'600 km,77600,Diesel,1,Vaud,['22'],46.597469329833984,6.542710781097412
1733472901-540,VW GEOVAN XL *neues MODEL*,"Schwettistrasse 1A, 6042 Dietwil",CHF 51'500.–,51500,49'985 km,49985,Diesel,1,St. Gallen,['17'],47.450294494628906,9.641934394836426
1733472905-541,VW T6.1 California 2.0 TDI Beach,"Seewenstrasse 28, 6440 Brunnen",CHF 84'900.–,84900,27'600 km,27600,Diesel,1,Zürich,['01'],47.5367317199707,8.729513168334961
1733472910-542,"VW T6.1 CALIFORNIA 2,0 TDI DSG 4X4 OCEAN LIBERTY","Zollstrasse 33, 8240 Thayngen(SH)",CHF 65'997.–,65997,47'802 km,47802,Diesel,1,Bern,['02'],46.97899627685547,7.4851155281066895
1733472915-543,VW GEOVAN M,"Schwettistrasse 1A, 6042 Dietwil",CHF 21'500.–,21500,110'000 km,110000,Benzin,0,Vaud,['22'],46.3544807434082,6.932366371154785
1733472921-544,PEUGEOT Bravia SWAN 599  2.2 BlueHDI 165PS,"St. Gallerstrasse 33, 8352 Räterschen - bei Winterthur",CHF 54'900.–,54900,23'002 km,23002,Diesel,1,Aargau,['19'],47.152587890625,8.39490032196045
1733472925-545,FORD Nugget Westfalia Hochdach,"Albulastrasse 37, 8048 Zürich",CHF 43'900.–,43900,80'350 km,80350,Diesel,1,Zürich,['01'],47.45183181762695,8.701164245605469
1733472929-546,VW T6 California 2.0 TDI Ocean Liberty,"Herrenmattstrasse 28, 4658 Däniken",CHF 65'000.–,65000,29'900 km,29900,Diesel,1,Bern,['02'],46.93461227416992,7.489782810211182
1733472932-547,RENAULT Trafic Camper L1H1 2.8t dCi 120 ***Aufstelldach***,"Buechstrasse 19, 8645 Jona",CHF 42'800.–,42800,22'000 km,22000,Diesel,1,Fribourg,['10'],46.60664749145508,7.032050609588623
1733472937-548,FIAT PILOTE MS35/EB4,"Niederämterstrasse 11, 4657 Dulliken",CHF 44'900.–,44900,29'200 km,29200,Diesel,1,Valais,['23'],46.251888275146484,6.946492671966553
1733472945-549,MERCEDES-BENZ Marco Polo Activ 250 d 4M,"Gässliacker 13, 4492 Tecknau",CHF 52'800.–,52800,51'000 km,51000,Diesel,1,Zürich,['01'],47.39164352416992,8.48184871673584
1733472953-550,VW T5 California 2.5L,"Route de la Comba 2, 1680 Romont",CHF 21'900.–,21900,266'000 km,266000,Diesel,1,Bern,['02'],46.94354248046875,7.448245525360107
1733472967-551,VW T5 California 2.0 Bi-TDI Beach Edition 4Motion,"Lenzbüel 4, 8370 Sirnach",CHF 44'990.–,44990,66'000 km,66000,Diesel,1,Zug,['09'],47.11505889892578,8.60737133026123
1733472970-552,VW T6 California 2.0 TDI Beach Liberty,"Binningerstrasse 112, 4123 Allschwil",CHF 43'900.–,43900,113'000 km,113000,Diesel,1,Schaffhausen,['14'],47.741600036621094,8.709936141967773
1733472973-553,VW T6.1 California 2.0 TDI Beach Liberty Anhängerkupplung I Standheizung,"Buzibachstrasse 47, 6023 Rothenburg",CHF 47'800.–,47800,116'000 km,116000,Diesel,1,Schaffhausen,['14'],47.741600036621094,8.709936141967773
1733472977-554,VW Caddy Maxi 2.0 TDI Ca DSG,"Hausmattweg 1, 4805 Brittnau",CHF 36'500.–,36500,22'900 km,22900,Diesel,1,Aargau,['19'],47.31313705444336,7.93761682510376
1733472983-555,CHALLENGER FD1,"Route de Sullens 9, 1303 Penthaz",CHF 19'900.–,19900,55'000 km,55000,Diesel,1,Luzern,['03'],47.10837173461914,8.34425163269043
1733472991-557,VW Maxi 1.0 TSI,8472 Seuzach,CHF 32'900.–,32900,91'000 km,91000,Benzin,0,Bern,['02'],46.960086822509766,7.453735828399658
1733472995-558,VW T4,3063 Ittigen,CHF 22'000.–,22000,69'000 km,69000,Benzin,0,Thurgau,['20'],47.5069580078125,9.270942687988281
1733473000-559,VW T6.1 California 2.0 Bi-TDI Ocean Edition Liberty 4Motion,"Route du Simplon 32, 1852 Roche VD",CHF 69'900.–,69900,25'000 km,25000,Diesel,1,St. Gallen,['17'],47.36394500732422,9.074725151062012
1733473004-560,VW GEOVAN M - Induktion - Aussendusche - Solarsystem - Lithiumbatterie - grosses Bett,"Schwettistrasse 1A, 6042 Dietwil",CHF 20'000.–,20000,115'000 km,115000,Benzin,0,Schaffhausen,['14'],47.741600036621094,8.709936141967773
1733473009-561,FIAT 2.5 TD Hoby,8310 Kemptthal,CHF 15'490.–,15490,107'000 km,107000,Diesel,1,Fribourg,['10'],46.78022766113281,7.160383701324463
1733473014-562,CARTHAGO Chic C-Line 4.8 i,3074 Muri,CHF 89'900.–,89900,15'900 km,15900,Diesel,1,Valais,['23'],46.224342346191406,7.311820983886719
1733473017-563,FIAT Ducato,1635 La Tour de Trême,CHF 10'000.–,10000,52'000 km,52000,Diesel,1,Zürich,['01'],47.3072509765625,8.82162094116211
1733473022-564,FIAT Ducato,1870 Monthey,CHF 5'000.–,5000,130'000 km,130000,Diesel,1,St. Gallen,['17'],47.05475997924805,9.414716720581055
1733473026-565,VW T4,8048 Zürich,CHF 15'000.–,15000,127'000 km,127000,Diesel,1,Aargau,['19'],47.350502014160156,8.052599906921387
1733473030-566,EURA MOBIL EURA MOBIL Sport 665 HB,3005 Bern,CHF 23'450.–,23450,145'000 km,145000,Diesel,1,St. Gallen,['17'],47.25289535522461,9.001060485839844
1733473033-567,VW T5 California 2.0 Bi-TDI Comfortline Travel 4Motion,6314 Unterägeri,CHF 35'500.–,35500,147'500 km,147500,Diesel,1,Basel-Landschaft,['13'],47.44962692260742,7.733177185058594
1733473036-568,"LAIKA ECOVIP 329 2,3 DIESEL FIAT DUCATO MJ2 150","Zollstrasse 33, 8240 Thayngen(SH)",CHF 56'997.–,56997,26'185 km,26185,Diesel,1,Ticino,['21'],46.05215835571289,8.927762031555176
1733473040-569,MERCEDES-BENZ Marco Polo Viano 2.2 CDI 4M Aut.,"Zollstrasse 33, 8240 Thayngen(SH)",CHF 39'997.–,39997,99'985 km,99985,Diesel,1,Zürich,['01'],47.42990493774414,8.642165184020996
1733473044-570,VW T6 California 2.0 TDI Beach Liberty,"Bifang 8, 4665 Oftringen",CHF 49'900.–,49900,54'900 km,54900,Diesel,1,Bern,['02'],47.089149475097656,7.367190361022949
1733473051-571,TOYOTA PROACE 1.5 Firenze L1 by Almo Campers,"Am Sagenbach 14, 6033 Buchrain",CHF 59'900.–,59900,20'400 km,20400,Diesel,1,Zürich,['01'],47.50355529785156,8.72974967956543
1733473054-572,PÖSSL GLOBECAR 640 mit Einzelbett! ab MFK! ab Service!,"Johann-Renfer-Strasse 3, 2504 Biel/Bienne",CHF 38'890.–,38890,88'999 km,88999,Diesel,1,St. Gallen,['17'],47.21963119506836,9.049421310424805
1733473058-573,VW T2,3014 Bern,CHF 55'000.–,55000,160'000 km,160000,Benzin,0,Basel-Landschaft,['13'],47.4791374206543,7.730919361114502
1733473061-574,TOYOTA Hiace,9220 Bischofszell,CHF 6'900.–,6900,79'600 km,79600,Benzin,0,Bern,['02'],46.73295211791992,8.19924259185791
1733473065-575,"DETHLEFFS Trend A 6977, Fiat Ducato 2.3MJT 150PS","Hofackerstrasse 7, 9606 Bütschwil",CHF 49'900.–,49900,23'500 km,23500,Diesel,1,Zug,['09'],47.19585418701172,8.449189186096191
1733473069-576,"PÖSSL SUMMIT 540 SHINE 2,2 HDI CITROEN JUMPER","Zollstrasse 33, 8240 Thayngen(SH)",CHF 56'997.–,56997,18'694 km,18694,Diesel,1,Valais,['23'],46.25404357910156,7.422774314880371
1733473071-577,FORD Nugget,1723 Marly,CHF 49'900.–,49900,45'000 km,45000,Diesel,1,Ticino,['21'],45.995521545410156,8.861557006835938
1733473074-578,VW T6.1 California 2.0 Bi-TDI Ocean Liberty 4Motion,"Route des Peupliers 14, 1964 Conthey",CHF 75'900.–,75900,33'250 km,33250,Diesel,1,Aargau,['19'],47.434837341308594,8.130186080932617
1733473076-579,VW T6.1 California 2.0 Bi-TDI Ocean Edition Liberty,8340 Hinwil,CHF 59'000.–,59000,46'500 km,46500,Diesel,1,Zug,['09'],47.19585418701172,8.449189186096191
1733473082-580,MORELO,8887 Mels,CHF 220'000.–,220000,20'000 km,20000,Diesel,1,Ticino,['21'],46.03166198730469,8.980022430419922
1733473085-581,VW T6.1 California 2.0 TDI Ocean Edition Liberty,"Industriestrasse 39, 5036 Oberentfelden",CHF 74'900.–,74900,13'500 km,13500,Diesel,1,Fribourg,['10'],46.78022766113281,7.160383701324463
1733473089-582,CARTHAGO Chic C-Line I 4.8,"Breitenstrasse 1, 8725 Gebertingen",CHF 43'900.–,43900,170'270 km,170270,Diesel,1,Aargau,['19'],47.51038360595703,8.029332160949707
1733473091-583,VW T6 California 2.0 TDI Ocean Liberty,4416 Bubendorf,CHF 44'900.–,44900,122'000 km,122000,Diesel,1,Schaffhausen,['14'],47.741600036621094,8.709936141967773
1733473094-584,ADRIA SCi700,6930 Bedano,CHF 53'000.–,53000,32'000 km,32000,Diesel,1,Basel-Landschaft,['13'],47.46751022338867,7.860188961029053
1733473123-590,VW T6.1 California 2.0 TDI Beach,8303 Bassersdorf,CHF 54'500.–,54500,66'000 km,66000,Diesel,1,Vaud,['22'],46.65927505493164,6.602917194366455
1733473134-591,MAN 18.402,3251 Wengi,CHF 83'000.–,83000,230'000 km,230000,Diesel,1,Aargau,['19'],47.53417205810547,8.284839630126953
1733473139-592,PEUGEOT,8400 Winterthur,CHF 20'000.–,20000,68'597 km,68597,Benzin,0,Jura,['26'],47.33237075805664,7.197763919830322
1733473155-595,VW California Beach,4410 Liestal,CHF 49'500.–,49500,99'820 km,99820,Diesel,1,Thurgau,['20'],47.548492431640625,9.371267318725586
1733473160-596,VW T5,6085 Hasliberg,CHF 39'990.–,39990,133'000 km,133000,Diesel,1,Thurgau,['20'],47.548492431640625,9.371267318725586
1733473166-597,FIAT Ducato Knaus 2.5 JTDI - 6 Personen Zul -2 x Drehstuhl -MFK Service neu,6330 Cham,CHF 15'900.–,15900,95'000 km,95000,Diesel,1,Bern,['02'],47.11965560913086,7.325146675109863
1733473177-599,FORD Tec,6986 Curio,CHF 28'000.–,28000,55'000 km,55000,Diesel,1,Bern,['02'],46.79905700683594,7.602220058441162
1733473186-600,MERCEDES-BENZ 314 CDI,5108 Oberflachs,CHF 25'000.–,25000,130'000 km,130000,Diesel,1,Vaud,['22'],46.79380798339844,6.610972881317139
1733473207-605,VW T6.1 California 2.0 Bi-TDI Beach Edit. 4Motion,5070 Frick,CHF 79'900.–,79900,32'500 km,32500,Diesel,1,Neuchâtel,['24'],46.94688034057617,6.838715076446533
1733473211-606,"BAVARIA K 600 G 2,3 DIESEL HUBDACH FIAT DUCATO MJ 130","Zollstrasse 33, 8240 Thayngen(SH)",CHF 53'997.–,53997,39'985 km,39985,Diesel,1,Bern,['02'],46.582515716552734,7.65067195892334
1733473217-608,IVECO 4x4 Camper,"Dorf 10, 9127 St. Peterzell",CHF 38'700.–,38700,45'000 km,45000,Diesel,1,Basel-Landschaft,['13'],47.42103958129883,7.541443347930908
1733473220-609,SUNLIGHT Adventure V 69,3940 Steg VS,CHF 50'900.–,50900,24'000 km,24000,Diesel,1,Schaffhausen,['14'],47.741600036621094,8.709936141967773
1733473232-612,VW T6 California 2.0 TDI Beach Liberty,4143 Dornach,CHF 26'500.–,26500,242'000 km,242000,Diesel,1,St. Gallen,['17'],47.25289535522461,9.001060485839844
1733473237-614,DODGE COBRA  Sportsman B300,1611 Le Crêt-près-Semsales,CHF 17'900.–,17900,107'250 km,107250,Benzin,0,Bern,['02'],46.740760803222656,7.654515266418457
1733473240-615,VW T6.1 California 2.0 TDI Beach Edition Spirit 4Motion,1376 Goumoens,CHF 67'000.–,67000,35'000 km,35000,Diesel,1,Schaffhausen,['14'],47.69285202026367,8.623772621154785
1733473243-616,DETHLEFFS Advantage T7051,5304 Endingen,CHF 49'900.–,49900,67'000 km,67000,Diesel,1,Fribourg,['10'],46.745460510253906,7.17196798324585
1733473246-617,HYMER B564,2855 Glovelier,CHF 18'000.–,18000,186'500 km,186500,Diesel,1,Thurgau,['20'],47.56113815307617,9.13205337524414
1733473248-618,MERCEDES-BENZ Marco Polo 250 d  4M Automat,5234 Villigen,CHF 59'900.–,59900,50'000 km,50000,Diesel,1,Thurgau,['20'],47.54872131347656,9.308004379272461
1733473258-620,KARMANN Dexter 595,"Romanshornerstrasse 133, 9322 Egnach",CHF 54'980.–,54980,29'850 km,29850,Diesel,1,Luzern,['03'],47.1522331237793,8.230500221252441
1733473264-621,PÖSSL Roadcamp R,"Romanshornerstrasse 133, 9322 Egnach",CHF 58'980.–,58980,25'516 km,25516,Diesel,1,Bern,['02'],47.004615783691406,7.807994842529297
1733473267-622,FIAT Womo integriert Adriatec 630 heckbett MFK,2556 Schwadernau,CHF 16'400.–,16400,81'000 km,81000,Diesel,1,Zürich,['01'],47.41093826293945,8.445731163024902
1733473270-623,PEUGEOT Expert Service Camper 140 AT 2.5T AHK,"Hauptstrasse 9, 5212 Hausen bei Brugg",CHF 37'200.–,37200,19'800 km,19800,Diesel,1,Thurgau,['20'],47.56113815307617,9.13205337524414
1733473274-624,CITROEN JUMPY Tiny Camper,"Winterhaldenstrasse 20, 3627 Heimberg",CHF 7'999.–,7999,204'500 km,204500,Diesel,1,Basel-Landschaft,['13'],47.52974319458008,7.613723278045654
1733473279-625,LAIKA Cosmos 909 E,1442 Montagny,CHF 75'000.–,75000,12'000 km,12000,Diesel,1,Basel-Stadt,['12'],47.566158294677734,7.5871500968933105
1733473282-626,FIAT Fiat Ducato 2.3 Mjet,"Grenzstrasse, 8107 Dällikon",CHF 54'489.–,54489,78'329 km,78329,Diesel,1,Genève,['25'],46.17378616333008,6.068464279174805
1733473285-627,FIAT Knaus Wohnmobil,8600 Dübendorf,CHF 9'000.–,9000,120'000 km,120000,Diesel,1,Jura,['26'],47.3612174987793,7.31329870223999
1733473298-630,CHAUSSON 747GA Welcome,"Rte de Boudry 24, 2016 Cortaillod",CHF 51'000.–,51000,30'000 km,30000,Diesel,1,Luzern,['03'],47.10284423828125,8.376439094543457
1733473315-632,VW T6 California 2.0 TDI Coast,3714 Frutigen,CHF 54'000.–,54000,78'000 km,78000,Diesel,1,Vaud,['22'],46.534976959228516,6.548501491546631
1733473318-633,VW Westfalia Joker,9497 Triesenberg,CHF 44'900.–,44900,107'000 km,107000,Benzin,0,Solothurn,['11'],47.19559860229492,7.415706634521484
1733473321-634,VW T6,4225 Brislach,CHF 29'000.–,29000,170'000 km,170000,Diesel,1,Schaffhausen,['14'],47.741600036621094,8.709936141967773
1733473326-635,"CARADO CAPRON A 366 2,3 DIESEL FIAT DUCATO MJ 130","Zollstrasse 33, 8240 Thayngen(SH)",CHF 37'997.–,37997,59'395 km,59395,Diesel,1,Zürich,['01'],47.41579055786133,8.562726974487305
1733473329-636,VW Caddy 1.5 TSI California Spirit,"Rte de Porrentruy 86, 2800 Delémont",CHF 28'900.–,28900,43'000 km,43000,Benzin,0,Schwyz,['05'],47.0999870300293,8.67253589630127
1733473332-637,FIAT Dethleffs Globe S Langsbett Nutzlast 760 Kg,"Oberfeldstrasse 13, 8570 Weinfelden",CHF 38'900.–,38900,64'700 km,64700,Diesel,1,Ticino,['21'],45.997154235839844,8.911989212036133
1733473335-638,VW T6 California 2.0 TDI Coast,"Breitenstrasse 1, 8725 Gebertingen",CHF 36'900.–,36900,142'870 km,142870,Diesel,1,Zürich,['01'],47.613948822021484,8.723015785217285
1733473338-639,IVECO Daily 55S18W 4x4,3703 Aeschi bei Spiez,CHF 295'000.–,295000,75'000 km,75000,Diesel,1,Zürich,['01'],47.30265426635742,8.719642639160156
1733473346-641,MERCEDES-BENZ 108 CDI,3652 Hilterfingen,CHF 12'900.–,12900,276'737 km,276737,Diesel,1,Zug,['09'],47.180965423583984,8.527673721313477
1733473349-642,HYMER Camper Yellostone Fiat 2.3l Aut,"Mühlenstrasse 96, 8200 Schaffhausen",CHF 43'900.–,43900,34'900 km,34900,Diesel,1,Bern,['02'],46.95400619506836,7.555635452270508
1733473352-643,FIAT Pilote V630J Premium,1724 Le Mouret,CHF 58'000.–,58000,28'000 km,28000,Diesel,1,Zürich,['01'],47.45281219482422,8.792537689208984
1733473356-644,FIAT Hymer Tramp 50 Premium Langsbett,"Oberfeldstrasse 13, 8570 Weinfelden",CHF 44'900.–,44900,26'200 km,26200,Diesel,1,Vaud,['22'],46.4897575378418,6.398878574371338
1733473359-645,VW T6 California 2.0 TDI Beach,"Fehlwiesstrasse 1, 8580 Amriswil",CHF 29'900.–,29900,175'000 km,175000,Diesel,1,Aargau,['19'],47.353187561035156,8.055020332336426
1733473363-646,VW T6 California 2.0 Bi-TDI Ocean Edition 4Motion,"Sinserstrasse 400, 6330 Cham ZG",CHF 42'880.–,42880,171'000 km,171000,Diesel,1,Fribourg,['10'],46.90143585205078,7.227672576904297
